address,type_object,type_permit,number_permit,date_permit,latitude_1,longitude_1,latitude_2,longitude_2
"ул.1-я Луговая, 44б","Склад лесоматериалов","На строительство",RU61310000-6996-1,01.04.2009,47.1779665028915,39.6431154710347,"416943,3141","2198518,447"
"левый берег реки Дон: ул.Шоссейная, склоны Ворошиловского моста, ул.Левобережная, южнее Ворошиловского моста, ул.Береговая, 37/1, Батайский въезд, съезды с Ворошиловского моста; правый берег реки Дон: просп.Ворошиловский, ул.Донская, ул.Нижнебульварная","Мостовой переход через р.Дон в створе Ворошиловского проспекта в г.Ростове-на-Дону. Линейный объект (На реконструкцию). Здания, строения и сооружения, входящие в инфраструктуру линейного объекта (строительство)","На строительство",RU61310000-8082-1,19.09.2013,47.2159961401607,39.7219810552461,"421071,5838","2204564,901"
"левый берег реки Дон: ул.Шоссейная, склоны Ворошиловского моста, ул.Левобережная, южнее Ворошиловского моста, ул.Береговая, 37/1, Батайский въезд, съезды с Ворошиловского моста; правый берег реки Дон: просп.Ворошиловский, ул.Донская, ул.Нижнебульварная","Мостовой переход через р.Дон в створе Ворошиловского проспекта в г.Ростове-на-Дону. Линейный объект (На реконструкцию). Здания, строения и сооружения, входящие в инфраструктуру линейного объекта (строительство)","На строительство",RU61310000-8082-1,19.09.2013,47.2168216892497,39.7208700749047,"421164,7234","2204482,232"
"левый берег реки Дон: ул.Шоссейная, склоны Ворошиловского моста, ул.Левобережная, южнее Ворошиловского моста, ул.Береговая, 37/1, Батайский въезд, съезды с Ворошиловского моста; правый берег реки Дон: просп.Ворошиловский, ул.Донская, ул.Нижнебульварная","Мостовой переход через р.Дон в створе Ворошиловского проспекта в г.Ростове-на-Дону. Линейный объект (На реконструкцию). Здания, строения и сооружения, входящие в инфраструктуру линейного объекта (строительство)","На строительство",RU61310000-8082-1,19.09.2013,47.2162568704029,39.7205719792816,"421102,2961","2204458,636"
"пр-кт. Богатяновский Спуск, 31",Гостиница,"На строительство",61-310-881601-2016,13.04.2016,47.224136457013,39.7305420585744,"421966,1222","2205227,905"
"Социалистическая ул., 145","Выставочный комплекс","На строительство",RU61310000-7255-2,25.02.2011,47.2236855647907,39.7293079088644,"421917,4966","2205133,63"
"Социалистическая ул., 145","Выставочный комплекс","На строительство",RU61310000-7255-2/1,29.12.2011,47.2236855647907,39.7293079088644,"421917,4966","2205133,63"
"ул. Большая Садовая, 114а","Гостиница малой вместимости","На реконструкцию",61-310-881701-2016,13.04.2016,47.2235171347271,39.7260838717972,"421902,701","2204889,151"
"ул. Большая Садовая, 114а","Гостиница малой вместимости","На реконструкцию",61-310-881701-2016,13.04.2016,47.2235171347271,39.7260838717972,"421902,701","2204889,151"
"левый берег реки Дон: ул.Шоссейная, склоны Ворошиловского моста, ул.Левобережная, южнее Ворошиловского моста, ул.Береговая, 37/1, Батайский въезд, съезды с Ворошиловского моста; правый берег реки Дон: просп.Ворошиловский, ул.Донская, ул.Нижнебульварная","Мостовой переход через р.Дон в створе Ворошиловского проспекта в г.Ростове-на-Дону. Линейный объект (На реконструкцию). Здания, строения и сооружения, входящие в инфраструктуру линейного объекта (строительство)","На строительство",RU61310000-8082-1,19.09.2013,47.2167881428247,39.7219125885349,"421159,7169","2204561,138"
"Социалистическая ул., 126","административно-учебный корпусо","На реконструкцию",RU61310000-7456-1,19.11.2010,47.2220452391309,39.7255620525796,"421739,7026","2204846,992"
"ул. Петровская, 3","Многоквартирный жилой дом с помещениями общественного назначения и подземной автостоянкой","На строительство",61-310-895801-2016,18.11.2016,47.2217703083477,39.7263637085162,"421708,1594","2204907,217"
"пер. Кольцовский, 6а","Офисное здание","На строительство",61-310-876801-2016,02.02.2016,47.2216126582437,39.7285269022616,"421687,996","2205070,774"
"Университетский пер., 18","6-ти этажный жилой дом со встроенными офисными помещениями  и помещениями для работы с детьми","На строительство",RU61310000-6931-1,20.01.2009,47.2214611908806,39.7297131245689,"421669,7128","2205160,347"
"пр-кт Богатяновский спуск, 11а","Многоквартирный жилой дом со встроенными помещениями общественного назначения и подземной автостоянкой","На строительство",61-310-883501-2016,28.04.2016,47.2213394549832,39.7318767903085,"421653,5485","2205324,005"
"Азовская ул., 4","индивидуальный одноквартирный двухэтажный жилой дом","На строительство",61-61310003-1-2015,15.06.2015,47.2207208685041,39.7315514061249,"421585,1736","2205298,258"
"Азовская ул., 14","индивидуальный одноквартирный двухэтажный жилой дом","На строительство",61-6131003-1-2015,15.06.2015,47.2207208685041,39.7315514061249,"421585,1736","2205298,258"
"ул. Береговая, 16б","Объект общественного питания и досуга с открытой площадкой для отдыха","На строительство",RU61310000-8519-1,09.02.2015,47.2179334760961,39.7299683988556,"421277,2152","2205173,382"
"Нахичеванский пер., 22","индивидуальный одноквартирный трехэтажный жилой дом","На строительство","№ 185",07.04.2008,47.2250125916981,39.7397970171559,"422052,3126","2205930,391"
"7-го Февраля ул., 51","индивидуальный одноквартирный трехэтажный жилой дом","На строительство","№ 9",21.01.2008,47.2255794425397,39.7411649462321,"422113,6811","2206034,994"
"Гоголевская ул., 22","индивидуальный одноквартирный трехэтажный жилой дом","На строительство",61-61310003-2-2015,25.09.2015,47.2249885764903,39.7421206187785,"422046,8408","2206106,326"
"Гоголевская ул., 14","ул. Гоголевская, 14","На строительство","№ 422",02.07.2008,47.2248159505894,39.7409958588149,"422029,0051","2206020,837"
"Ломоносовская ул.,24","На реконструкцию квартиры № 11 с устройством балкона","На реконструкцию",RU61310000-8487-1,12.12.2014,47.2245618248549,39.7427352567432,"421998,6571","2206152,121"
"Станиславского ул., 227","индивидуальный одноквартирный трехэтажный жилой дом","На строительство","№ 721",25.12.2007,47.224159133773,39.7424127388786,"421954,2771","2206126,983"
"Державинский пер., 24/63","индивидуальный одноквартирный двухэтажный жилой дом","На строительство",RU61310003-12,03.06.2014,47.2231157697229,39.7410117878888,"421839,9713","2206019,034"
"Красных Зорь ул., 66","индивидуальный одноквартирный трехэтажный жилой дом","На строительство",61-61310003-3-2015,14.10.2015,47.2206198745733,39.7332796219238,"421571,8475","2205428,974"
"Седова ул., 101/7","Многоэтажная гостиница со встроенной автостоянкой","На строительство",RU61310000-8281-1,03.04.2014,47.2208214437851,39.7355137306287,"421591,5482","2205598,546"
"ул. Береговая, 55а","Многоэтажный жилой дом ""Панорама"" с подземно-надземной автостоянкой","На строительство",61-310-884801-2016,20.05.2016,47.2184565697053,39.7311638047147,"421333,9155","2205264,861"
"ул. Береговая, 61/1б","Многоэтажный жилой комплекс со встроенными офисными помещениями, встроенно-пристроенным фитнес центром и многоуровневой автостоянкой","На строительство",RU61310000-8576-1,03.04.2015,47.2190664265983,39.7342616176788,"421397,9548","2205500,587"
"ул. Береговая, 69/3","Газораспределительный пункт","На реконструкцию",61-310-890401-2016,17.08.2016,47.2200798711236,39.7403225584994,"421503,2921","2205961,457"
"ул. Береговая, 69/3","Камера переключения канализационной насосной","На реконструкцию",61-310-890401-2016,17.08.2016,47.2200798711236,39.7403225584994,"421503,2921","2205961,457"
"ул. Береговая, 69/3","Камера переключения пожаротушения","На реконструкцию",61-310-890401-2016,17.08.2016,47.2200798711236,39.7403225584994,"421503,2921","2205961,457"
"ул. Береговая, 69/3","Канализационная насосная","На реконструкцию",61-310-890401-2016,17.08.2016,47.2200798711236,39.7403225584994,"421503,2921","2205961,457"
"ул. Береговая, 69/3","Котельная №3","На реконструкцию",61-310-890401-2016,17.08.2016,47.2200798711236,39.7403225584994,"421503,2921","2205961,457"
"ул. Береговая, 69/3","Котельная водогрейных котлов ВК13, ВК14","На реконструкцию",61-310-890401-2016,17.08.2016,47.2200798711236,39.7403225584994,"421503,2921","2205961,457"
"ул. Береговая, 69/3","Насосная станция пожаротушения","На реконструкцию",61-310-890401-2016,17.08.2016,47.2200798711236,39.7403225584994,"421503,2921","2205961,457"
"левый берег реки Дон: ул.Шоссейная, склоны Ворошиловского моста, ул.Левобережная, южнее Ворошиловского моста, ул.Береговая, 37/1, Батайский въезд, съезды с Ворошиловского моста; правый берег реки Дон: просп.Ворошиловский, ул.Донская, ул.Нижнебульварная","Мостовой переход через р.Дон в створе Ворошиловского проспекта в г.Ростове-на-Дону. Линейный объект (На реконструкцию). Здания, строения и сооружения, входящие в инфраструктуру линейного объекта (строительство)","На строительство",RU61310000-8082-1,19.09.2013,47.2113673977601,39.7270797675235,"420550,7628","2204942,833"
"Левобережная ул., 5е","Здание для хранения спортивного инвентаря - I I этап строительства","На строительство",RU61310000-8383-1,09.09.2014,47.2121996030505,39.7320019071957,"420637,2913","2205317,189"
"Левобережная ул., 28е",Гостиница,"На реконструкцию",61-310-835802-2016,09.09.2016,47.1956119386578,39.7705199507979,"418747,1276","2208206,393"
"Левобережная ул., 28е",ГРПШ,"На реконструкцию",61-310-835802-2016,09.09.2016,47.1956119386578,39.7705199507979,"418747,1276","2208206,393"
"Левобережная ул., 28е",Котельная,"На реконструкцию",61-310-835802-2016,09.09.2016,47.1956119386578,39.7705199507979,"418747,1276","2208206,393"
"Левобережная ул., 28е",Гостиница,"На строительство",RU61310000-8358-1,27.06.2014,47.1956119386578,39.7705199507979,"418747,1276","2208206,393"
"Левобережная ул., 28е",ГРПШ,"На строительство",RU61310000-8358-1,27.06.2014,47.1956119386578,39.7705199507979,"418747,1276","2208206,393"
"Левобережная ул., 28е",Котельная,"На строительство",RU61310000-8358-1,27.06.2014,47.1956119386578,39.7705199507979,"418747,1276","2208206,393"
"Левобережная ул., 28е","Подземный резервуар","На строительство",RU61310000-8358-1,27.06.2014,47.1956119386578,39.7705199507979,"418747,1276","2208206,393"
"левый берег реки Дон, ул. Береговая","переключающий пункт 2","На реконструкцию",61-310-861901-2015,29.05.2015,47.2075886403422,39.7495471072326,"420103,5157","2206638,187"
"ул. Левобережная","Переходной пункт 110 кВ","На строительство",61-310-896001-2016,22.11.2016,47.2075886403422,39.7495471072326,"420103,5157","2206638,187"
"ул. Береговая, 9","Нежилое помещение","На реконструкцию",61-310-869601-2015,10.09.2015,47.2131896574414,39.7031708331327,"420782,7805","2203134,955"
"ул. Береговая, 6","Многоэтажный жилой дом со встроенными помещениями общественного назначения и двухуровневой  автостоянкой","На строительство",61-310-880601-2016,30.03.2016,47.2121038462422,39.7042125630627,"420660,7738","2203211,889"
"ул.Малюгиной, 113","Торгово-гостиничный комплекс","На строительство",RU61310000-6751-1,15.08.2008,47.2284397624201,39.6937591703371,"422489,9183","2202450,026"
"11-я улица ул., 66а","индивидуальный одноквартирный трехэтажный жилой дом","На строительство",RU61540000-02,20.02.2015,47.2319967981526,39.6901211270102,"422889,9253","2202181,073"
"Малюгиной ул., 88","Квартира №12","На реконструкцию",RU61310000-7885-1,03.09.2012,47.2279114097113,39.6933693378564,"422431,6677","2202419,533"
"3-я Ноябрьская ул., 2/2г","индивидуальный одноквартирный двухэтажный жилой дом","На строительство","RU 61540000-36",08.12.2015,47.2455502032572,39.663059595713,"424431,0242","2200157,349"
"СТ Рыбник, уч.180","индивидуальный одноквартирный жилой дос с количеством этажей-два","На строительство",RU61310002-1,16.01.2014,47.1754164203465,39.5488158762314,"416786,819","2191365,195"
"6-я Конструктивная ул., 7","Индивидуальный, одноквартирный, двухэтажный жилой дом","На строительство",RU61310000-3,15.02.2016,47.1857598892637,39.558330022194,"417923,5157","2192107,4"
"1-й Донстроевский пер., 21/1","Индивидуальный, одноквартирный, трехэтажный жилой дом","На строительство",RU61310000-27,29.08.2016,47.1835037615782,39.5579897279736,"417673,1685","2192077,03"
"ул. 3-я Конструктивная, 18","индивидуальный одноквартирный   жилой дом","На строительство",RU61310002-21,17.05.2014,47.1845554828335,39.5562855093913,"417792,4498","2191949,999"
"ул. Кумженская, 47б","одноквартирный жилой дом этажностью - один","На строительство",RU61310002-47,11.11.2014,47.1705272837938,39.551680667043,"416239,3002","2191572,395"
,"Индивидуальный, одноквартирный, двухэтажный жилой дом","На строительство",RU61310000-11,10.03.2017,47.168516839861,39.5507497427087,"416017,0903","2191497,72"
"ул. Кумженская, 62а","Индивидуальный, одноквартирный, трехэтажный жилой дом","На строительство",RU61310000-5,02.02.2017,47.1686935003299,39.5495512620005,"416038,3973","2191407,218"
"ул. Кумженская, 62а","Индивидуальный, одноквартирный, трехэтажный жилой дом 62","На строительство",RU61310000-6,02.02.2017,47.1685668151047,39.5497082377693,"416024,0951","2191418,861"
"ул. Кумженская, 62а","Индивидуальный, одноквартирный, трехэтажный жилой дом","На строительство",RU61310000-4,02.02.2017,47.1684039609024,39.5499044100394,"416005,7173","2191433,401"
"ул. Сормовская, 43","двухэтажный одноквартирный жилой дом","На строительство",RU61310002-1,20.01.2015,47.2354952399156,39.6390300178861,"423344,2542","2198318,92"
"пр-кт. Стачки, 128","Офисное здание","На строительство",RU61310000-8474-1,05.06.2015,47.2122321649181,39.6536941401786,"420739,0011","2199385,21"
"ул. Красная, 70","Индивидуальный, одноквартирный, трехэтажный жилой дом","На строительство",RU61310000-1,23.01.2017,47.2130189124009,39.6497962610847,"420831,504","2199091,43"
"Крупской ул.43","Газовая котельная","На строительство",RU61310000-7506-1/1,21.02.2011,47.2133610423483,39.656057826987,"420861,4535","2199566,4"
"ул. Крупской, 11","одноквартирный жилой дом с количеством этажей - три","На строительство",RU61310002-40,06.10.2014,47.2135436620838,39.6602844906326,"420876,3192","2199886,919"
"ул. 3-я Баррикадная, 67","трехэтажный ,одноквартирный жилой  дом","На строительство",RU61310002-39,15.09.2014,47.2147253710257,39.6534211282103,"421016,53","2199369,252"
"ул. 3-я Баррикадная, 49а","индивидуальный одноквартирный трехэтажный жилой дом","На строительство",RU61310002-24,26.06.2014,47.214730621655,39.6556522600916,"421014,236","2199538,269"
"пер. Киевский, 8","Индивидуальный, одноквартирный, двухэтажный жилой дом","На строительство",RU61310000-91,30.12.2015,47.2182754412376,39.6523689167328,"421412,56","2199296,279"
"ул. Калинина, 51","Индивидуальный, одноквартирный, двухэтажный жилой дом","На строительство","RU 61310000-80",05.11.2015,47.218608763216,39.6522805854886,"421449,7305","2199290,221"
"ул. 4-я Кольцевая, 34","Индивидуальный, одноквартирный, трехэтажный жилой дом","На строительство","RU 61310000-14",06.06.2016,47.2173593519949,39.6552753796032,"421306,965","2199514,694"
"ул. 3-я Баррикадная, 42/59","Индивидуальный, одноквартирный, двухэтажный жилой дом","На строительство","RU 61310000-48",12.12.2016,47.2152556227458,39.6550778529379,"421073,3422","2199495,751"
"ул. 4-я Кольцевая, 59а","Индивидуальный, одноквартирный , двухэтажный жилой дом","На строительство","RU 61310000-20",05.04.2017,47.2153905400862,39.655079513727,"421088,3392","2199496,132"
"ул. Авиационная, 15","Одноквартирный жилой дом","На строительство","RU 61310002-36",29.08.2014,47.2200525160752,39.653064052776,"421609,2246","2199352,3"
"ул. Авиационная, 4","индивидуальный, одноквартирный, двухэтажный жилой дом","На строительство","RU 61310000-46",24.11.2016,47.2202244247572,39.6544656750315,"421626,5274","2199458,786"
"ул. Мадояна, 69","Магазин промышленных товаров со встроенными помещениями административного назначения","На строительство",61-310-891201-2016,06.09.2016,47.2208656151058,39.6555958259536,"421696,3532","2199545,598"
"ул. Мадояна, 69","Магазин промышленных товаров со встроенными помещениями административного назначения","На строительство",61-310-891201-2016,06.09.2016,47.2208656151058,39.6555958259536,"421696,3532","2199545,598"
"ул. 5-я Кольцевая, 34","Индивидуальный, одноквартирный , двухэтажный жилой дом","На строительство","RU 61310000-18",24.03.2017,47.2188806271683,39.6550828719505,"421476,3377","2199502,991"
"ул. Калинина, 48а","индивидуальный, одноквартирный, двухэтажный жилой дом","На строительство","RU 61310000-50",14.12.2016,47.2183973383755,39.6546544423502,"421423,1615","2199469,625"
"ул. 6-я Кольцевая, 49","Одноквартирный жилой дом, этажностью - три","На строительство",RU61310000-9,02.03.2015,47.2186060205366,39.6543401487253,"421446,7667","2199446,215"
"ул. 2-я Кольцевая, 86","индивидуальный, одноквартирный, двухэтажный жилой дом","На строительство","RU 61310000-35",19.10.2016,47.2175908427979,39.6588296471009,"421328,1249","2199784,35"
"2-я Баррикадная ул. 42","индивидуальный одновкартирный жилой дом","На строительство",RU61310000-14,20.03.2017,47.214238036329,39.6708278738746,"420940,0286","2200686,889"
"ул. Товарищеская, 34","одноквартирный жилой дом с количеством этажей - один","На строительство",RU61310002-44,30.10.2014,47.2130486036218,39.6711825139642,"420807,3443","2200711,529"
"ул. Спартаковская, 26/61","одноквартирный жилой дом этажностью - три","На строительство",RU61310000-14,19.03.2015,47.2114526497709,39.6733669169897,"420627,1378","2200874,023"
"ул. Великолукская, 12","одноквартирный жилой дом с количеством этажей - два","На строительство",RU61310002-6,19.02.2015,47.2154288110983,39.6671595932161,"421077,0902","2200411,249"
"ул. 2-я Кольцевая, 21","Индивидуальный, одноквартирный, двухэтажный жилой дом","На строительство",RU61310000-40,03.11.2016,47.2168610044694,39.6683657395494,"421234,771","2200505,296"
"пер. Радиальный, 13а","Индивидуальный, одноквартирный, трехэтажный жилой дом","На строительство","RU 61310000-24",12.08.2016,47.2168013249477,39.67241803526,"421222,972","2200812,13"
"ул. 2-я Кольцевая, 4а","одноквартирный жилой дом с количеством этажей-два","На строительство",RU61310002-43,08.10.2014,47.2152773746089,39.6715274650747,"421054,6837","2200741,825"
"ул. Ленинградская, 13","Индивидуальный, одноквартирный, двухэтажный жилой дом","На строительство",RU61310000-87,02.12.2015,47.2126571643217,39.676563615909,"420756,9873","2201118,428"
"ул. Бабушкина, 12/92","одноквартирный жилой дом этажностью-три","На строительство",RU61310002-53,20.11.2014,47.2121364546236,39.6794348030353,"420695,4607","2201334,959"
"1-я Баррикадная ул., 24-30","Жилой дом со встроен.нежилыми помещениями","На строительство",RU61310000-2263-3,30.06.2014,47.2138966855642,39.6814242819672,"420888,6345","2201488,933"
"ул. Токарная, 62","Индивидуальный, одноквартирный, двухэтажный жилой дом","На строительство","RU 61310000-33",12.05.2017,47.2128609640256,39.6846584984288,"420769,4084","2201732,01"
"пр-кт Стачки, 28","Котлы наружного размещения марки КСУВ-200, ГРПШ (поз. 4.1 по ПЗУ) - 1-й этап строительства","На строительство",61-310-890301-2016,17.08.2016,47.2123955231956,39.6674911965944,"420739,4476","2200430,682"
"пр-кт Стачки, 28","Поливочная насосная станция (поз. 4 по ПЗУ) - 1-й этап строительства","На строительство",61-310-890301-2016,17.08.2016,47.2123955231956,39.6674911965944,"420739,4476","2200430,682"
"пр-кт Стачки, 28","Резервуар для дождевых и дренажных вод (подземный) (поз. 5 по ПЗУ) - 1-й этап строительства","На строительство",61-310-890301-2016,17.08.2016,47.2123955231956,39.6674911965944,"420739,4476","2200430,682"
"пр-кт Стачки, 28","Физкультурно-оздоровительный корпус (поз. 2 по ПЗУ) - 1-й этап строительства","На строительство",61-310-890301-2016,17.08.2016,47.2123955231956,39.6674911965944,"420739,4476","2200430,682"
"ул. Подгорная, 19а","индивидуальный одноквартирный жилой дом с количеством этажей - два","На строительство",RU61310002-2,17.11.2014,47.2005227614191,39.6826256980389,"419400,3015","2201555,163"
"ул. Портовая, 175а","Индивидуальный, одноквартирный, двухэтажный жилой дом","На строительство",RU61310000-43,16.11.2016,47.2042914112274,39.6796514489999,"419823,0317","2201336,803"
"ул. Перекопская, 46","Индивидуальный, одноквартирный, двухэтажный жилой дом","На строительство","RU 61310000-7",15.04.2016,47.2046104881776,39.6819653618334,"419855,5788","2201512,706"
"пер. Деревянко, 32","Индивидуальный, одноквартирный, трехэтажный жилой дом","На строительство","RU 61310000-19",22.07.2016,47.2031472768774,39.6844807724528,"419689,7353","2201700,576"
"пер. Поповского, 23","двухэтажный одноквартирный жилой дом","На строительство",RU61310000-13,13.03.2015,47.2050360713953,39.6905106894252,"419892,1329","2202160,915"
"пер. Поповского, 23","двухэтажный одноквартирный жилой дом","На строительство",RU61310002-2,21.01.2015,47.2050360713953,39.6905106894252,"419892,1329","2202160,915"
"пер. Весенний, 29","Индивидуальный, одноквартирный, двухэтажный жилой дом","На строительство",RU61310000-41,09.11.2016,47.2069877846924,39.692040769873,"420107,1912","2202280,429"
"ул. 2-я Володарского, 102а","индивидуальный одноквартирный двухэтажный жилой дом","На строительство",RU61310000-,20.01.2015,47.2050175068741,39.6662899509009,"419920,7487","2200325,843"
"ул. 1-я Володарского, 43","индивидуальный, одноквартирный, двухэтажный жилой дом","На строительство",RU61310000-53,23.12.2016,47.2053494588305,39.6664392974661,"419957,4617","2200337,78"
"ул. Горбачева, 78","Индивидуальный, одноквартирный , двухэтажный жилой дом","На строительство","RU 61310000-15",22.03.2017,47.2066637275997,39.6662709570346,"420103,7876","2200327,492"
"ул. Курортная, 58","индивидуальный одноквартирный жилой дом с количеством этажей - три","На строительство",RU61310002-7,06.03.2014,47.2073321568334,39.6657909326822,"420178,7125","2200292,38"
"пер. Виражный,13","индивидуальный одноквартирный жилой дом с количеством этажей  - три","На строительство",RU61310002-6,13.02.2014,47.2122493038275,39.6951190078694,"420688,2753","2202523,292"
"пр-кт Стачки, 71","4-х этажное административное здание с подземной парковкой","На строительство",61-310-893001-2016,21.10.2016,47.2109864812477,39.6638433447571,"420587,4662","2200151,699"
"пр-кт Стачки, 71","4-х этажное административное здание с подземной парковкой","На строительство",61-310-893001-2016,21.10.2016,47.2109864812477,39.6638433447571,"420587,4662","2200151,699"
"пр-кт. Стачки, 65","Офисное здание с магазином","На строительство",61-310-889302-2017,02.02.2017,47.2109553676962,39.6645557917161,"420583,0949","2200205,612"
"пр-кт. Стачки, 65","Офисное здание с магазином","На строительство",61-310-889302-2017,02.02.2017,47.2109553676962,39.6645557917161,"420583,0949","2200205,612"
"пр-кт.Стачки, 51/2","одноквартирный жилой дом, этажностью-два","На строительство",RU61310000-67,16.09.2015,47.2109371026141,39.6661528416435,"420579,0212","2200326,561"
"ул. Кочубея, 36","одноквартирный жилой дом этажностьб - два","На строительство",RU61310002-50,17.11.2014,47.2038099090707,39.6728346794669,"419778,1507","2200819,438"
"ул. Днепростроевская, 91","индивидуальный одноквартирный жилой дом с количеством этажей  -  один","На строительство",RU61310002-18,30.04.2014,47.2045548862455,39.6715769848568,"419862,5724","2200725,54"
"ул. 2-я Володарского, 105","индивидуальный, одноквартирный, двухэтажный жилой дом","На строительство",RU61310000-51,16.07.2015,47.2056619435732,39.6699278343459,"419987,7481","2200602,666"
"ул. Горбачева, 60","одноквартирный жилой дом с количеством этажей-два","На строительство",RU61310002-28,11.07.2014,47.2074412539805,39.6686830485586,"420187,1464","2200511,69"
"ул. Батуринская, 24","Индивидуальный, одноквартирный, двухэтажный жилой дом","На строительство","RU 61310000-30",21.04.2017,47.2088135698793,39.6678158802462,"420340,8174","2200448,565"
"ул. Днепростроевская, 76","Индивидуальный, одноквартирный, трехэтажный жилой дом","На строительство",RU61310000-90,24.12.2015,47.2063575748732,39.6755463809734,"420057,9355","2201029,635"
"ул. Артемовская, 20","одноквартирный жилой дом с количеством этажей - два","На строительство",RU61310002-29,18.07.2014,47.2064871617493,39.6733964998265,"420075,0734","2200866,999"
"ул. 1-я Володарского, 11","Индивидуальный, одноквартирный , двухэтажный жилой дом","На строительство","RU 61310000-32",02.05.2017,47.207664506587,39.6735697919152,"420205,7417","2200882,324"
"ул. 1-я Володарского, 3","Индивидуальный, одноквартирный, двухэтажный жилой дом","На строительство","RU 61310000-52",23.12.2016,47.2080533542887,39.6747495064084,"420247,4718","2200972,423"
"ул. Курортная, 16","Индивидуальный, одноквартирный, двухэтажный жилой дом","На строительство","RU 61310000-27",14.04.2017,47.2093291719583,39.6719408263692,"420392,8793","2200762,025"
"ул. Днепростроевская, 47е","одноквартирный жилой дом с количеством этажей  -  три","На строительство",RU61310002-30,31.07.2014,47.2057917632355,39.6784430626239,"419991,3597","2201248,039"
"ул. Гастелло, 34а","одноквартирный жилой дом, этажностью - два","На строительство",RU61310000-8,27.02.2015,47.2098784560793,39.6794719806947,"420444,3857","2201333,582"
,"Индивидуальный, одноквартирный, одноэтажный жилой дом","На строительство",RU61310000-12,14.03.2017,47.2099653277747,39.6815059527903,"420451,4712","2201487,829"
"2-я Володарского ул., 5а","индивидуальный одноквартирный трехэтажный жилой дом","На строительство",RU61310000-9,20.02.2017,47.2095834781289,39.6821874799945,"420408,159","2201538,751"
"ул. Загорская, 18","Индивидуальный, одноквартирный, двухэтажный жилой дом","На строительство","RU 61310000-51",21.12.2016,47.2088740257954,39.6880128496785,"420321,9464","2201978,752"
"пер. Зеркальный, 7","Многоквартирный жилой дом","На строительство",61-310-896901-2016,29.11.2016,47.2115369480976,39.693921631264,"420610,5786","2202431,279"
"пер. Зеркальный, 7","Подземная насосная","На строительство",61-310-896901-2016,29.11.2016,47.2115369480976,39.693921631264,"420610,5786","2202431,279"
"пл. Стачки 1902 года, 3","Автомойка - I этап строительства","На строительство",61-310-901701-2017,20.01.2017,47.2127324070969,39.694069229518,"420743,2965","2202444,655"
"ул. Волгодонская, 18","Индивидуальный одноквартирный двухэтажный жилой дом","На строительство",RU61310000-52,22.07.2015,47.2093034824733,39.6482856766337,"420420,4061","2198969,935"
"ул. 2-я Круговая, 3, Плеханова, 110/5","Многоквартирный жилой дом с помещениями общественного назначения и подземной автостоянкой","На строительство",61-310-907801-2017,24.05.2017,47.2112478100168,39.6527976022743,"420630,7252","2199315,429"
"ул. Плеханова, 55","Офисное здание","На строительство",61-310-887301-2016,12.07.2016,47.2106743851417,39.6539786210891,"420565,4514","2199403,811"
"ул. Свердловская, 94","Индивидуальный, одноквартирный, двухэтажный жилой дом","На строительство",RU61310000-26,24.08.2016,47.2055522943202,39.6546548558385,"419995,1427","2199445,345"
"ул. Батуринская, 98","индивидуальный одноквартирный жилой дом с количеством этажей- один","На строительство",RU61310002-5,13.02.2014,47.2046518636909,39.6548153711485,"419894,8325","2199455,802"
"ул. Коминтерна, 8/21","индивидуальный, одноквартирный, двухэтажный жилой дом","На строительство",RU61310000-37,02.11.2016,47.2105009125492,39.6591378981377,"420539,5216","2199794,324"
"ул. Коминтерна, 8/21","индивидуальный, одноквартирный. двухэтажный жилой дом","На строительство",RU61310000-38,02.11.2016,47.2105009125492,39.6591378981377,"420539,5216","2199794,324"
"ул. Свердловская, 74","индивидуальный, одноквартирный, двухэтажный жилой дом","На строительство","RU 61310000-81",09.11.2015,47.206435048741,39.6575828066035,"420089,5087","2199668,84"
"ул. Свердловская, 74","индивидуальный, одноквартирный, двухэтажный жилой дом","На строительство","RU 61310000-82",11.11.2015,47.206435048741,39.6575828066035,"420089,5087","2199668,84"
"пр-кт. Стачки, 87","индивидуальный, одноквартирный, трехэтажный жилой дом","На строительство","RU 61310000-54",03.08.2015,47.2110893231655,39.6616137123209,"420601,7575","2199982,988"
"1-я Краснодарская ул., 1б","Магазин продовольственных товаров","На реконструкцию",RU61310000-8068-1,23.07.2013,47.2100147870768,39.6623263782713,"420481,3843","2200034,954"
"ул. Доброхимовская, 14","одноквартирный жилой дом этажностью - два","На строительство",RU61310002-48,17.11.2014,47.2088284979546,39.6605824013131,"420351,7391","2199900,602"
"ул. Батуринская, 66","индивидуальный, одноквартирный, двухэтажный жилой дом","На строительство",RU61310000-39,02.11.2016,47.2068430869917,39.6617061306189,"420129,5735","2199981,995"
"ул. Батуринская, 58а","Индивидуальный, одноквартирный, одноэтажный жилой дом","На строительство","RU 61310000-23",05.08.2016,47.2071257261151,39.6626072234487,"420159,8396","2200050,794"
"ул. Батуринская, 56","одноквартирный жилой дом с количеством этажей - два","На строительство",RU61310002-33,31.07.2014,47.2072229102868,39.6629120267691,"420170,2531","2200074,069"
,"индивидуальный одноквартирный двухэтажный жилой дом","На строительство",RU61310000-13,17.06.2017,47.2060415015321,39.663438491269,"420038,2382","2200111,733"
"ул. Горбачева, 96","одноквартирный жилой дом с количеством этажей - три","На строительство",RU61310002-31,31.07.2014,47.2057977335471,39.6635938456863,"420010,9388","2200123,044"
"СНТ ""Красный садовод"", 350","Индивидуальный, одноквартирный, трехэтажный жилой дом","На строительство","RU 61310000-45",22.11.2016,47.202896219532,39.6455811236202,"419711,6026","2198752,837"
"Дежнева пер., 17/9","Индивидуальный, одноквартирный, трехэтажный жилой дом","На строительство",RU61310000-86,02.12.2015,47.2018349397012,39.645555056756,"419593,6513","2198748,84"
"Магнитогорская ул., 3в","10-ти этажный многоквартирный жилой дом со встроенными помещениями общественного назначения и подземной автостоянкой","На строительство",61-310-831002-2016,19.12.2016,47.1957133380862,39.6269920444977,"418937,3709","2197330,541"
"ул. Магнитогорская, 3б","Многоквартирный жилой дом","На строительство",61-310-857701-2015,26.06.2015,47.1954519180805,39.6270945410565,"418908,1733","2197337,803"
"пер. Пржевальского, 28в","Индивидуальный, одноквартирный , одноэтажный жилой дом","На строительство","RU 61310000-31",28.04.2017,47.1953392452753,39.6263146051231,"418896,6743","2197278,485"
"пер. Урицкого, 74/10","Многоквартирный жилой дом с помещениями общественного назначения на первом этаже и подземной автостоянкой","На строительство",61-310-889901-2016,10.08.2016,47.1970589351147,39.6293041988728,"419083,9225","2197508,343"
"пер. Урицкого, 56","3-х этажная жилая застройка","На строительство",61-310-907901-2017,25.05.2017,47.1950318239979,39.6298872926476,"418857,7976","2197548,619"
"ул. Камышинская, 23а","Индивидуальный, одноквартирный, двухэтажный жилой дом","На строительство","RU 61310000-9",10.05.2016,47.1929939679094,39.625864747201,"418636,5371","2197239,862"
"ул. Магнитогорская, 23","Индивидуальный, одноквартирный, трехэтажный жилой дом","На строительство",RU61310000-30,02.09.2016,47.1959967543336,39.6375793189304,"418954,9941","2198133,348"
"ул. Кузнечная, 115","Многоквартирный жилой дом","На строительство",RU61310000-8547-1,12.03.2015,47.1935442861525,39.6386188608721,"418680,99","2198207,424"
"ул. Кузнечная, 70","Индивидуальный, одноквартирный, трехэтажный жилой дом","На строительство","RU 61310000-11",25.05.2016,47.1928780411094,39.6322371282675,"418615,2721","2197722,539"
"пер. Молодогвардейский, 38","Одноквартирный жилой дом, этажностью - два","На строительство",RU61310000-11,04.03.2015,47.1926897374292,39.6321293240851,"418594,4793","2197714,007"
"бывший аэродром ДОСААФ, участок XXXVIII","Жилой дом №38","На строительство",61-310-897201-2016,30.11.2016,47.2007766110291,39.6434041300312,"419478,7897","2198583,85"
"пер. Аэроклубовский, 63","Индивидуальный, одноквартирный , двухэтажный жилой дом","На строительство","RU 61310000-23",07.04.2017,47.1972202992356,39.6455782953645,"419080,6003","2198741,809"
"пер. Аэроклубовский, 65","одноэтажный, одноквартирный жилой  дом","На строительство",RU61310002-37,09.09.2014,47.1973738008562,39.6454745781286,"419097,8001","2198734,242"
"территория бывшего аэродрома ДОСААФ в г.Ростове-на-Дону. Участок XXVIII","Канализационная насосная станция - I этап строительства пожарного поста и канализационной насосной станции в жилой застройке с объектами социально-культурного и коммунального назначения","На строительство",RU61310000-7074-1,15.06.2009,47.1989801476422,39.6429468995161,"419279,6673","2198545,777"
"бывший аэродром ДОСААФ в г.Ростове-на-Дону. Участок XXVII","Здание ЖЭС","На строительство",RU61310000-7065-1,01.06.2009,47.1995571301211,39.6427163058007,"419344,1119","2198529,406"
"бывший аэродром ДОСААФ в г.Ростове-на-Дону. Участок XXVII","РП ТП","На строительство",RU61310000-7065-1,01.06.2009,47.1995571301211,39.6427163058007,"419344,1119","2198529,406"
"территория бывшего аэродрома ДОСААФ в г.Ростове-на-Дону. Участок XXIX","Автостоянка на 313 автомобилей","На строительство",RU61310000-7072-1,05.06.2009,47.1983042988006,39.6431630966211,"419204,2502","2198560,868"
"ул.Магнитогорская, 132л","индивидуальный одноквартирный жилой дом с количеством этажей - три","На строительство",RU61310002-3,22.01.2014,47.1950454788123,39.6452220134976,"418839,283","2198710,667"
"ул. Кузнечная, 203","Индивидуальный, одноквартирный, трехэтажный жилой дом","На строительство",RU61310000-28,30.08.2016,47.1953951149308,39.6486178229772,"418873,7477","2198968,657"
"ул. Портовая, 386, 386а, 388","Объект бытового обслуживания и сферы торговли","На строительство",61-310-889501-2016,08.08.2016,47.1939951769531,39.6480333261152,"418718,8707","2198921,704"
"ул. Кузнечная, 231","Индивидуальный, одноквартирный, двухэтажный жилой дом","На строительство",RU61310000-2,05.02.2016,47.1959381111395,39.6512110326774,"418930,7573","2199166,192"
"ул. Магнитогорская, 158","одноквартирный жилой дом с количеством этажей - три","На строительство",RU61310002-4,17.02.2015,47.1969647514671,39.652582896315,"419043,1184","2199272,092"
"ул. Кузнечная, 282","Индивидуальный, одноквартирный, трехэтажный жилой дом","На строительство","RU 61310000-21",26.07.2016,47.1982724121697,39.6582870442459,"419181,1416","2199706,789"
"ул. Портовая, 256а","одноквартирный жилой дом этажностью - три","На строительство",RU61310002-46,11.11.2014,47.1999797473376,39.6632705718789,"419364,5525","2200087,614"
"ул. 2-я Володарского, 305/52","Индивидуальный, одноквартирный, трехэтажный жилой дом","На строительство",RU61310000-89,23.12.2015,47.1963319909089,39.6467816518289,"418980,283","2198831,301"
"2-я Володарского ул., 215","индивидуальный одноквартирный трехэтажный жилой дом","На строительство",RU61310000-8,06.03.2017,47.1987760348536,39.6551654333503,"419241,1504","2199471,209"
"пер. Молодогвардейский, 54","Индивидуальный, одноквартирный, двухэтажный жилой дом","На строительство","RU 61310000-15",06.06.2016,47.1941301773733,39.6319088844961,"418754,9055","2197700,074"
"Вертолетное поле (бывший аэродром ДОСААФ), участок I-4","индивидуальный, одноквартирный, трехэтажный жилой дом","На строительство","RU 61310000-63",28.08.2015,47.2021737722975,39.65558999891,"419618,3381","2199509,804"
"пер. Салютина, 9","Индивидуальный, одноквартирный, двухэтажный жилой дом","На строительство",RU61310000-32,30.09.2016,47.2009929957664,39.6575815823065,"419484,5033","2199658,471"
"ул. Курортная, 122","Индивидуальный, одноквартирный , двухэтажный жилой дом","На строительство","RU 61310000-24",10.04.2017,47.2039092593599,39.6556905633524,"419811,147","2199520,705"
"ул. 1-я Круговая, 72/1","Индивидуальный, одноквартирный, двухэтажный жилой дом","На строительство","RU 61310000-29",18.04.2017,47.2019883231347,39.6596924245136,"419592,4421","2199820,283"
"территория бывшего аэродрома ДОСААФ в г.Ростове-на-Дону. Участок XV","Апарт-отель на 17 номеров","На строительство",RU61310000-7071-1,05.06.2009,47.2000475585455,39.6514460621438,"419387,3107","2199191,797"
"ул. Магнитогорская, 1/1","26-ти этажный жилой дом - 2-й этап строительства","На строительство",61-310-877201-2016,16.02.2016,47.1954507081736,39.6240196739553,"418912,0915","2197104,798"
"ул. Магнитогорская, 1/1","20-ти этажный 2-х секционный жилой дом","На строительство",61-310-889801-2016,04.08.2016,47.1960569346955,39.6233669303496,"418980,3486","2197056,509"
"ул. Магнитогорская, 1а","20-ти этажный 3-х секционный жилой дом - 4 - й этап строительства","На строительство",61-310-899401-2016,09.12.2016,47.1961718234219,39.6220881689095,"418994,8099","2196959,833"
"ул. Магнитогорская, 1","20-ти этажный многоквартирный жилой дом с помещениями общественного назначения (Дошкольная образовательная организация на 80 мест, офисные помещения) - 6 этап строительства","На строительство",61-310-898701-2016,09.12.2016,47.1956635696311,39.6212640273908,"418939,3955","2196896,397"
"ул. Магнитогорская, 2","20-ти этажный многоквартирный жилой дом с помещениями общественного назначения (Дошкольная образовательная организация на 80 мест, офисные помещения) - 10 этап строительства","На строительство",61-310-898801-2016,09.12.2016,47.1951131926318,39.6199115425607,"418879,9979","2196792,842"
"ул. Циолковского, 1","5-ти этажная многоуровневая автостоянка на 280 машино-мест - 15-й этап строительства","На строительство",61-310-902301-2017,23.01.2017,47.1943848454613,39.6198634750627,"418799,0895","2196787,786"
"ул. Магнитогорская, 2а","20-ти этажный многоквартирный жилой дом с помещениями общественного назначения (кафе на 50 мест, отделение связи, офисные помещения) - 9 этап строительства","На строительство",61-310-899501-2016,09.12.2016,47.1947840311839,39.6208974581693,"418842,0999","2196866,914"
"ул. Циолковского, 3","5-ти этажная многоуровневая автостоянка на 280 машино-мест - 14-й этап строительства","На строительство",61-310-902201-2017,23.01.2017,47.1940656080127,39.6206779393675,"418762,5215","2196848,885"
"ул. Магнитогорская, 2б","20-ти этажный многоквартирный жилой дом с помещениями общественного назначения (магазин непродовольственных товаров, ЖЭУ, предприятие бытового обслуживания, приемный пункт химчистки, офисные помещения) - 8 этап строительства","На строительство",61-310-898901-2016,09.12.2016,47.1944368721289,39.6218831514537,"418802,2023","2196940,934"
"ул. Циолковского, 5","5-ти этажная многоуровневая автостоянка на 280 машино-мест - 13-й этап строительства","На строительство",61-310-902101-2017,23.01.2017,47.1937644970507,39.6214662127002,"418728,004","2196908,035"
"ул. Магнитогорская, 2в","20-ти этажный многоквартирный жилой дом с помещениями общественного назначения (магазин продовольственных товаров, филиал банка, фитнес зал, офисные помещения) - 7 этап строительства","На строительство",61-310-899601-2016,09.12.2016,47.194090063127,39.6228028537255,"418762,4318","2197009,955"
"ул. Магнитогорская, 1б","20-ти этажный многоквартирный жилой дом с помещениями общественного назначения (Дошкольная образовательная организация на 80 мест, офисные помещения) - 5 этап строительства","На строительство",61-310-899701-2016,09.12.2016,47.1953045463045,39.6227774661644,"418897,4821","2197010,385"
"пер. Снеговой, 19","Индивидуальный, одноквартирный, двухэтажный жилой дом","На строительство","RU 61310000-6",06.04.2016,47.2278130429058,39.6423181598704,"422485,9161","2198553,216"
"пер. Урюпинский, 6","одноквартирный жилой дом этажностью - два","На строительство",RU61310002-5,19.02.2015,47.2310347716403,39.6420533364217,"422844,43","2198539,319"
"пер. Араратский, 45/169","одноэтажный одноквартирный жилой дом","На строительство",RU61310002-57,23.12.2014,47.231844201521,39.6420763134634,"422934,3868","2198542,606"
"ул. Доватора, район ул. Лазо",Автомойка,"На строительство",RU61310000-6380-1,16.02.2007,47.2418720090163,39.6423823207913,"424048,8112","2198584,941"
"пл.Привокзальная, 13а","Склад металла","На строительство",RU61310000-6966-1,05.03.2009,47.222512930491,39.6861294604655,"421840,5925","2201861,276"
"ул. Предботаническая, 2д","Индивидуальный, одноквартирный, двухэтажный жилой дом","На строительство","RU 61310000-17",04.07.2016,47.2339361422809,39.6427750930669,"423166,0448","2198599,517"
"НСТ ""Дружба"", ул.3-я улица, 36","одноквартирный жилой дом с количеством этажей-два","На строительство",RU61310002-42,08.10.2014,47.2314802404529,39.6492030188258,"422884,671","2199081,582"
"ул. Нагорная, 162","Индивидуальный, одноквартирный, трехэтажный жилой дом","На строительство","RU 61310000-49",13.12.2016,47.2182342243417,39.6750238245559,"421378,9592","2201012,18"
"ул. Кручинина, 64","индивидуальный одноквартирный жилой дом с  количеством этажей - три","На строительство",RU61310002-11,10.04.2014,47.2195805686501,39.6785660510568,"421524,144","2201282,986"
"Депутатская ул., 5а",Автосалон,"На строительство",61-310-827802-2016,24.05.2016,47.220277110373,39.6854668847051,"421592,8641","2201806,959"
"пр-кт. Ставского, 6/16","Индивидуальный, одноквартирный, трехэтажный жилой дом","На строительство",RU61310000-25,15.08.2016,47.2188623013922,39.6843924483926,"421436,9297","2201722,962"
"ул. Межевая, 86","Индивидуальный, одноквартирный, двухэтажный жилой дом","На строительство","RU 61310000-25",12.04.2017,47.2158830007227,39.6832055668277,"421107,2093","2201627,545"
"ул. Вагулевского, 70","Индивидуальный, одноквартирный, двухэтажный жилой дом","На строительство","RU 61310000-26",13.04.2017,47.216894494814,39.6855421286529,"421216,7141","2201806,404"
"Вагулевского ул., 81","Административное здание ДПМ","На реконструкцию",RU61310000-7939-1,04.12.2012,47.2163043266745,39.6864586645357,"421149,9492","2201874,738"
"Вагулевского ул., 81","Административное здание ДПМ","На реконструкцию",RU61310000-7939-2,26.09.2013,47.2163043266745,39.6864586645357,"421149,9492","2201874,738"
"Вагулевского ул., 35-37","Многоквартирный жилой дом со встроенными помещениями общественного назначения","На строительство",RU61310000-8211-1,29.01.2014,47.2154115002243,39.6898400008814,"421046,4402","2202129,219"
"ул. Вагулевского, 26а","Индивидуальный, одноквартирный, двухэтажный жилой дом","На строительство",RU61310000-33,30.09.2016,47.2157211380198,39.6907021346499,"421079,7815","2202195,094"
"Республиканская ул.","Приемная шахта К-11","На строительство",RU61310000-6692-1,20.06.2008,47.2225836695079,39.6742075744708,"421863,5366","2200958,466"
"Всесоюзная, 127","Индивидуальный, одноквартирный , одноэтажный жилой дом","На строительство","RU 61310000-17",23.03.2017,47.1898315123056,39.6300897023396,"418279,4013","2197553,935"
"ул. Набережная, 79а","индивидуальный, одноквартирный, двухэтажный жилой дом","На строительство","RU 61310000-62",27.08.2015,47.189605028243,39.6254554573348,"418260,3206","2197202,293"
"ул. Всесоюзная, 107","Двухэтажное административное здание","На строительство",61-310-868401-2015,12.10.2015,47.1904471074001,39.6277349804049,"418350,9342","2197376,672"
"ул. Всесоюзная, 120","Индивидуальный, одноквартирный, двухэтажный жилой дом","На строительство","RU 61310000-28",17.04.2017,47.188830062067,39.6289958538084,"418169,5053","2197469,107"
"пер. Промысловый, 10","Индивидуальный, одноквартирный, двухэтажный жилой дом","На строительство","RU 61310000-36",15.05.2017,47.1877503361436,39.6323214104808,"418045,1031","2197719,061"
"ул. Всесоюзная, 56/12","Индивидуальный, одноквартирный, одноэтажный жилой дом","На строительство","RU 61310000-84",16.11.2015,47.1914865058054,39.6218750946133,"418474,2141","2196934,603"
"пер. 5-й Поселковый, 19","одноквартирный жилой дом с количеством этажей - три","На строительство",RU61310002-7,25.02.2015,47.1924534540859,39.6486611738153,"418546,6601","2198966,351"
"5-й Поселковый пер., 18","индивидуальный одноквартирный двухэтажный жилой дом","На строительство",61310000-5,30.03.2016,47.1922998748565,39.6487780675034,"418529,4349","2198974,917"
"ул. Войкова, 80","Индивидуальный, одноквартирный, одноэтажный жилой дом","На строительство","RU 61310000-12",31.05.2016,47.1912393645839,39.6502034866443,"418409,69","2199080,924"
"ул. Портовая, 391","Индивидуальный, одноквартирный, двухэтажный жилой дом","На строительство","RU 61310000-18",19.07.2016,47.1947816103552,39.6536910543635,"418798,9824","2199351,928"
"пер. 2-й Поселковый, 28","Индивидуальный, одноквартирный , двухэтажный жилой дом","На строительство","RU 61310000-19",29.03.2017,47.1948012982365,39.6565417699556,"418797,4957","2199567,986"
"пер. 2-й Поселковый, 30","индивидуальный, одноквартирный, двухэтажный жилой дом","На строительство",RU61310000-32,29.04.2015,47.194901447064,39.6563318579982,"418808,8999","2199552,268"
"Портовая ул., 275","9-ти этажный 2-х секционный многоквартирный жилой дом со встроенным офисом на 1-м этаже и встроенной подземной автостоянкой (секция 2)","На строительство",RU61310000-8217-2,27.02.2015,47.1996396130959,39.6645333276426,"419325,1216","2200182,654"
"Портовая ул., 277","9-ти этажный 2-х секционный многоквартирный жилой дом со встроенным офисом на 1-м этаже и встроенной подземной автостоянкой (секция 1)","На строительство",RU61310000-8216-2,27.02.2015,47.1994269571417,39.6639763664741,"419302,1933","2200140,053"
"Войкова ул., 178б","индивидуальный одноквартирный трехэтажный жилой дом","На строительство",RU61310000-7,16.02.2017,47.1977414908866,39.6630051390416,"419116,0601","2200063,293"
"ул. Портовая, 279а",Магазин,"На реконструкцию",61-310-900601-2016,14.12.2016,47.2000108731872,39.6656597855855,"419364,9542","2200268,703"
"ул. Верхний Железнодорожный проезд, 7","Индивидуальный, одноквартирный , одноэтажный жилой дом","На строительство",RU61310000-21,06.04.2017,47.1978126084499,39.6739466607934,"419110,0015","2200892,502"
"ул. Матросова, 35","Жилой дом","На строительство",61-310-868101-2015,17.08.2015,47.1993574407836,39.6666546472863,"419291,0384","2200342,859"
"пер. Рыболовецкий, 7","Индивидуальный, одноквартирный, двухэтажный жилой дом","На строительство",RU61310000-2,25.01.2017,47.1979065859212,39.6732615846361,"419121,3202","2200840,767"
"пер. Рыболовецкий, 7а","Индивидуальный, одноквартирный, двухэтажный жилой дом","На строительство",RU61310000-3,25.01.2017,47.1980600346873,39.6731711426441,"419138,4945","2200834,2"
"пер. Глиссерный, 21б","Индивидуальный, одноквартирный , двухэтажный жилой дом","На строительство","RU 61310000-37",16.05.2017,47.201286551384,39.6782140747615,"419490,7935","2201222,316"
"ул. Акмолинская, 20","Индивидуальный, одноквартирный, трехэтажный жилой дом","На строительство",RU61310000-29,01.09.2016,47.2258591184606,39.6442752186898,"422266,147","2198697,697"
"ул. Красносельская, 21","Индивидуальный, одноквартирный, двухэтажный жилой дом","На строительство","RU 61310000-8",06.05.2016,47.2227542910131,39.6477365656887,"421916,4814","2198953,928"
"ул. Толмачева, 18","Индивидуальный, одноквартирный, двухэтажный жилой дом","На строительство",RU61310000-44,18.11.2016,47.2224157067518,39.6471646935296,"421879,5815","2198909,972"
"ул. Ровенская, 21","Индивидуальный, одноквартирный, двухэтажный жилой дом","На строительство","RU 61310000-83",11.11.2015,47.2201835973799,39.6458040476549,"421633,1971","2198802,665"
"ул. Рижская, 9","Индивидуальный, одноквартирный, трехэтажный жилой дом","На строительство",RU61310000-88,11.12.2015,47.2190008529169,39.6465818511006,"421500,6986","2198859,325"
"ул. Мичуринская, 2","2-х этажное офисное здание с гаражом сотрудников","На строительство",61-310-850703-2017,02.03.2017,47.2176519757737,39.6465126516,"421350,8299","2198851,514"
"ул. Запорожская, 38","Индивидуальный, одноквартирный, двухэтажный жилой дом","На строительство","RU 61310000-22",29.07.2016,47.217845459335,39.6472939412138,"421371,3265","2198911,061"
"ул. Говорова, 57а","Индивидуальный, одноквартирный, одноэтажный жилой дом","На строительство","RU 61310000-34",12.05.2017,47.2267969172435,39.6470595376254,"422366,7898","2198910,349"
"пер. Глазунова, 18","Индивидуальный, одноквартирный, двухэтажный жилой дом","На строительство",RU61310000-42,10.11.2016,47.2222549658946,39.648549100383,"421859,9169","2199014,518"
"ул.Заветинская, 20/24","Одноквартирный жилой дом с количеством этажей - три","На строительство",RU61310002-38,10.09.2014,47.2261473505052,39.6505772154319,"422290,0191","2199175,516"
"ул. Родниковая, 27/4","индивидуальный одноквартирный жилой дом с количеством этажей - два","На строительство",RU61310002-4,22.01.2014,47.2283129959707,39.6509602359423,"422530,2849","2199208,635"
"ул. Мадояна, 58в","Индивидуальный, одноквартирный, трехэтажный жилой дом","На строительство",RU61310000-4,24.02.2016,47.2239026058609,39.6530320899497,"422037,2915","2199357,176"
"пер. Ботанический Спуск, 5б","Индивидуальный, одноквартирный, двухэтажный жилой дом","На строительство",RU61310000-34,13.10.2016,47.2293036911419,39.6586181716102,"422630,5485","2199790,439"
"ул. Лесопарковая, 9а","Индивидуальный, одноквартирный, одноэтажный жилой дом","На строительство",RU61310000-85,23.11.2015,47.2278524249091,39.6575834294633,"422470,5379","2199709,338"
"ул. Песчаная, 21","Административное здание для размещения сотрудников аппарата УФМС России по Ростовской области","На строительство",61-310-895601-2016,15.11.2016,47.2266100606189,39.665556814739,"422322,1912","2200310,834"
"ул. Скачкова, 52","Многоуровневая наземная автостоянка открытого типа","На строительство",61-310-865901-2015,22.07.2015,47.2270812430964,39.6665134450916,"422373,3508","2200384,166"
"пер. Подпольный, 1б","одноквартирный жилой дом, этажностью - два","На строительство",RU61310000-10,04.03.2015,47.2233443244565,39.6733457680961,"421949,1963","2200894,614"
"ул. Разина, 12 ,14","Многоэтажный жилой дом с встроенными помещениями на первом этаже","На строительство",61-310-865301-2015,16.07.2015,47.220187387407,39.6624794029444,"421612,1045","2200065,688"
"ул. Дальневосточная, 7","Индивидуальный, одноквартирный, двухэтажный жилой дом","На строительство","RU 61310000-10",10.05.2016,47.221464325938,39.6671956622615,"421748,0297","2200425,298"
"ул. Чапаевская, 11","Индивидуальный, одноквартирный, трехэтажный жилой дом","На строительство","RU 61310000-20",26.07.2016,47.2207629118701,39.6671604603747,"421670,0964","2200421,317"
"Республиканская ул.","Приемная шахта К-9","На строительство",RU61310000-6690-1,20.06.2008,47.2228939744979,39.6719140777376,"421900,951","2200785,341"
"Республиканская ул.","Приемная шахта К-10","На строительство",RU61310000-6691-1,20.06.2008,47.2227796127933,39.673008531126,"421886,8445","2200868,018"
"Республиканская ул.","Приемная шахта К-7","На строительство",RU61310000-6637-1,02.04.2008,47.2231128235777,39.6698702730105,"421927,8847","2200630,957"
"Республиканская ул.","Приемная шахта К-3","На строительство",RU61310000-6630-1,02.04.2008,47.2249410877984,39.669483966474,"422131,6309","2200605,122"
"Республиканская ул.","Приемная шахта К-8","На строительство",RU61310000-6638-1,02.04.2008,47.2229891005002,39.6710306353528,"421912,6514","2200718,609"
"Республиканская ул.","Приемная шахта К-4","На строительство",RU61310000-6635-1,02.04.2008,47.2243620734773,39.6685127893742,"422068,4991","2200530,485"
"ул. 1-я Луговая, 3","Насосная станция","На строительство",61-310-896701-2016,28.11.2016,47.2039575790649,39.6992607878344,"419761,2906","2202821,877"
"ул. 1-я Луговая, 3","Перегрузочный комплекс масла подсолнечника","На строительство",61-310-896701-2016,28.11.2016,47.2039575790649,39.6992607878344,"419761,2906","2202821,877"
"ул. 2-я Луговая, 8","Котельная с выработкой электроэнергии на базе двух ГПУ с системой утилизации тепла и чиллером АБХМ","На строительство",61-310-864601-2015,08.07.2015,47.1987761113174,39.7007764554529,"419183,3649","2202927,246"
"1-я Луговая ул.32","На реконструкцию очистных сооружений канализации г.Ростова-на-Дону","На реконструкцию",RU61310000-7570-1,13.05.2011,47.1824254029341,39.6687384327878,"417406,0026","2200469,053"
"ул. 1-я Луговая, 30б","Конвейеры подвесные","На строительство",61-310-894202-2017,20.04.2017,47.1884469203178,39.6757678283423,"418066,482","2201013,059"
"ул. 1-я Луговая, 30б","Склад №1","На строительство",61-310-894202-2017,20.04.2017,47.1884469203178,39.6757678283423,"418066,482","2201013,059"
"ул. 1-я Луговая, 30б","Склад №3","На строительство",61-310-894202-2017,20.04.2017,47.1884469203178,39.6757678283423,"418066,482","2201013,059"
"ул. 1-я Луговая, 44","Контейнерный терминал - склад (позиция 1)","На строительство",RU61310000-7141-1,26.08.2009,47.1752216436215,39.6497310055343,"416629,5769","2199014,703"
"ул. 1-я Луговая, 44а","БКТП400/6/0,4-1-03 - I этап строительства","На строительство",RU61310000-8578-1,03.04.2015,47.1793043436967,39.6530921786671,"417079,1131","2199277,23"
"ул. 1-я Луговая, 44а","Здание склада № 1- III этап строительства","На строительство",RU61310000-8578-1,03.04.2015,47.1793043436967,39.6530921786671,"417079,1131","2199277,23"
"ул. 1-я Луговая, 44а","Здание склада № 2 - II этап строительства","На строительство",RU61310000-8578-1,03.04.2015,47.1793043436967,39.6530921786671,"417079,1131","2199277,23"
"ул. 1-я Луговая, 44а","Здание склада № 3 - I этап строительства","На строительство",RU61310000-8578-1,03.04.2015,47.1793043436967,39.6530921786671,"417079,1131","2199277,23"
"Привокзальная ул., 4","Здание - литер ""Ш""","На реконструкцию",RU61310000-2019-1/2,05.10.2006,47.2101791610819,39.6982864850776,"420454,1759","2202759,448"
"пер. Уманский, 5","Индивидуальный, одноквартирный, двухэтажный жилой дом","На строительство","RU 61310000-13",06.06.2016,47.196555156137,39.6720963521368,"418972,5608","2200749,95"
"1-й Машиностроительный пер., 5","Бетоносмесительный цех №1","На реконструкцию",RU61310000-7723-1,08.12.2011,47.2523791714162,39.6058621854891,"425265,1044","2195840,614"
"1-й Машиностроительный пер., 5","Главный производственный корпус и Арматурный цех в рамках технического перевооружения ЗАО ""ККПД"" -  I этап.","На реконструкцию",RU61310000-7723-1,08.12.2011,47.2523791714162,39.6058621854891,"425265,1044","2195840,614"
"пер. 1-й Машиностроительный, 21","Здание корпуса управления цехом лаков","На строительство",61-310-890501-2016,23.08.2016,47.2528807435866,39.5977034715386,"425331,8056","2195224,028"
"пер. 1-й Машиностроительный, 21","Здание продуктовой насосной у склада сырья и готовой продукции","На строительство",61-310-890501-2016,23.08.2016,47.2528807435866,39.5977034715386,"425331,8056","2195224,028"
"пер. 1-й Машиностроительный, 21","Здание продуктовой насосной у сливо-наливной железнодорожной эстакады","На строительство",61-310-890501-2016,23.08.2016,47.2528807435866,39.5977034715386,"425331,8056","2195224,028"
"пер. 1-й Машиностроительный, 21","Здание цеха лаков","На строительство",61-310-890501-2016,23.08.2016,47.2528807435866,39.5977034715386,"425331,8056","2195224,028"
"ул. Доватора, 160/1","Административно-складское здание","На реконструкцию",61-310-888201-2016,11.08.2016,47.2392908860916,39.5816354488657,"423842,7135","2193980,613"
"ул.Доватора, 156/3",Автоцентр,"На строительство",5999-2,26.12.2005,47.2410875419583,39.5891441077758,"424032,2651","2194552,694"
"ул. Доватора, 154/2","Здание склада","На строительство",61-310-899801-2016,08.12.2016,47.2424821973345,39.590810619898,"424185,0594","2194681,636"
"ул. Малиновского, 43","Торгово-сервисный центр по продаже и техническому обслуживанию автомобилей - II этап строительства","На строительство",RU61310000-8565-1,25.03.2015,47.2444571597799,39.6121386188512,"424376,0168","2196300,228"
"Доватора ул., 148ж","Контрольно-пропускной пункт №1","На строительство",RU61310000-6625-1,28.03.2008,47.247429121923,39.6012616302469,"424720,9523","2195482,622"
"Доватора ул., 148ж","Подъездной железнодорожный путь №1","На строительство",RU61310000-6625-1,28.03.2008,47.247429121923,39.6012616302469,"424720,9523","2195482,622"
"Доватора ул., 148ж","Подъездной железнодорожный путь №2","На строительство",RU61310000-6625-1,28.03.2008,47.247429121923,39.6012616302469,"424720,9523","2195482,622"
"Доватора ул., 148ж","склад стройматериалов №1","На строительство",RU61310000-6625-1,28.03.2008,47.247429121923,39.6012616302469,"424720,9523","2195482,622"
"СНТ ""Изумруд"", №200","Офисное здание","На строительство",61-310-874701-2016,20.01.2016,47.2379865855188,39.574502419017,"423707,4397","2193437,924"
"ул. Попова, 47","одноквартирный жилой дом","На строительство",RU61310008-177,27.08.2015,47.2421932012029,39.6364027963726,"424092,3189","2198132,845"
"ул. Предботаническая, 48","Индивидуальный  одноквартирный трёхэтажный жилой дом литера «А»","На строительство",RU61310008-122,07.02.2014,47.2437152006905,39.6311903394479,"424268,3519","2197741,142"
"ул. Долгожданная, д 6","Индивидуальный  одноквартирный двухэтажный жилой дом","На строительство",RU61310008-133,17.06.2014,47.2398170526317,39.6334158069367,"423832,0642","2197902,128"
ул.Доватора,"Телерадиопередающий центр","На строительство",RU61310000-6016-3,12.03.2007,47.2364308614883,39.6024579667099,"423496,6378","2195551,542"
"Доватора ул., 253","Автосалон №1 по продаже и техническому обслуживанию автомобилей ""ВMW""","На строительство",RU61310000-8318-1,28.05.2014,47.2364252075633,39.6103292527133,"423485,4895","2196147,53"
"Доватора ул., 253","Трансформаторная подстанция - 2БКТП - 10/0,4-630","На строительство",RU61310000-8318-1,28.05.2014,47.2364252075633,39.6103292527133,"423485,4895","2196147,53"
"земельный участок по ул. Доватора коммунальная зона жилой район ""Левенцовский""","Административно-офисное здание","На строительство",61-310-888401-2016,21.07.2016,47.2369164024375,39.5956089899801,"423559,8191","2195033,911"
"земельный участок по ул. Доватора коммунальная зона жилой район ""Левенцовский""","Фитнес - клуб - II этап строительства","На строительство",61-310-888501-2016,21.07.2016,47.2369164024375,39.5956089899801,"423559,8191","2195033,911"
"СНТ ""Локомотив"" (23)","Индивидуальный  одноквартирный двухэтажный жилой дом","На строительство",RU61310008-134,17.06.2014,47.242311951293,39.6163141996477,"424131,9786","2196612,168"
"ул. Буквенная, 17",Магазин,"На строительство",61-310-884101-2016,16.05.2016,47.2379679253368,39.6212033980137,"423642,5643","2196973,896"
"2-я Праздничная ул., 72/3","индивидуальный одноквартирный одноэтажный жилой дом","На строительство",RU61310008-214,21.03.2017,47.2531330821903,39.6536553973179,"425286,1322","2199459,773"
"ул. 2-я Праздничная, № 104","Индивидуальный  одноквартирный трёхэтажный жилой дом","На строительство",RU61310008-136,17.06.2014,47.2529593036216,39.6494125033348,"425272,297","2199138,279"
"ул. 2-я Праздничная, № 104а","Индивидуальный  одноквартирный трёхэтажный жилой дом","На строительство",RU61310008-135,17.06.2014,47.252951057407,39.6492802917995,"425271,5514","2199128,256"
"снт ""Коммунар"", 36","одноквартирный жилой дом","На строительство","RU 61310008-211",15.12.2016,47.2527728117293,39.6521581194653,"425248,0131","2199345,754"
"ул. 4-я  Бежевая, 23/24","Индивидуальный  одноквартирный двухэтажный жилой дом","На строительство",RU61310008-139,12.08.2014,47.2560434005079,39.6590816291193,"425602,6942","2199876,003"
"СТ ""Донподход-2"", 55","индивидуальный, одноквартирный, жилой дом","На строительство","RU 61310008-152",14.11.2014,47.2582365649318,39.6546562550377,"425852,2132","2199545,199"
"ул. Шаповалова, 2 (территория учебного полигона по ул.Шаповалова  в  районе  Змиевской  балки)","Учебный корпус РГСУ","На строительство",RU61310000-5703-4,05.03.2015,47.2514379512777,39.6527890644603,"425098,7971","2199390,982"
"Змиевская балка","Жилой дом (поз. 1 по ПЗУ) - 1-й этап строительства","На строительство",61-310-895201-2016,25.11.2016,47.2521303945358,39.6622301345173,"425163,6298","2200106,945"
"Змиевская балка","Жилой дом (поз. 2 по ПЗУ) - 2-й этап строительства","На строительство",61-310-895201-2016,25.11.2016,47.2521303945358,39.6622301345173,"425163,6298","2200106,945"
"Змиевская балка","Жилой дом (поз. 3 по ПЗУ) - 3-й этап строительства","На строительство",61-310-895201-2016,25.11.2016,47.2521303945358,39.6622301345173,"425163,6298","2200106,945"
"Змиевская балка","Жилой дом (поз. 4 по ПЗУ) - 4-й этап строительства","На строительство",61-310-895201-2016,25.11.2016,47.2521303945358,39.6622301345173,"425163,6298","2200106,945"
"Змиевская балка","Жилой дом (поз. 5 по ПЗУ) - 5-й этап строительства","На строительство",61-310-895201-2016,25.11.2016,47.2521303945358,39.6622301345173,"425163,6298","2200106,945"
"ул. Доватора, 56","Индивидуальный  одноквартирный трёхэтажный жилой дом","На строительство",RU613100008-107,31.07.2013,47.2417724283736,39.6408885802076,"424039,6857","2198471,658"
"Ейская ул., 11в","Клуб с кафе","На реконструкцию",RU61310000-7864-1,27.07.2012,47.2464952887594,39.6488051523679,"424554,4571","2199080,01"
"Ейская ул., 11в","Клуб с кафе","На реконструкцию",RU61310000-7864-1,27.07.2012,47.2464952887594,39.6488051523679,"424554,4571","2199080,01"
"ул. Литовская, 9","индивидуальный, одноквартирный, жилой дом","На строительство","RU 61310008-155",13.02.2015,47.2453414504657,39.6460567688993,"424429,7446","2198869,748"
"Голубиный пер., 9","индивидуальный одноквартирный одноэтажный жилой дом","На строительство",RU61310008-213,10.03.2017,47.246948338856,39.6321137698072,"424626,5789","2197817,28"
"Чудная ул., 14","Офисное здание со встроенной подземной автостоянкой","На строительство",61-310-843102-2015,23.07.2015,47.2370117585977,39.6315730167946,"423522,607","2197757,2"
"Западная ул.,7","Индивидуальный  одноквартирный двухэтажный жилой дом литера «А»","На строительство",RU613100008-95,22.02.2013,47.236135798465,39.632196544308,"423424,4059","2197802,725"
"ул. Томская, 81","Индивидуальный  одноквартирный трёхэтажный жилой дом","На строительство",RU61310008-124,24.03.2014,47.2257082729943,39.6358490457363,"422260,3633","2198059,266"
"пер Снеговой, 14","Индивидуальный  одноквартирный трёхэтажный жилой дом","На строительство",RU61310008-138,12.08.2014,47.2272095223485,39.6376364167778,"422424,9254","2198197,508"
"Львовская ул., 3а","индивидуальный одноквартирный трехэтажный жилой дом","На строительство",RU61310008-225,21.04.2017,47.2282613938223,39.6361172528908,"422543,8504","2198084,479"
"ул. Ковалевской, 40","Индивидуальный  одноквартирный двухэтажный жилой дом","На строительство",RU613100008-99,18.04.2013,47.2354445467537,39.625386865482,"423356,5102","2197285,768"
"ул. Карпатская, 7/50","индивидуальный, одноквартирный, жилой дом","На строительство","RU 61310008-157",16.03.2015,47.2330046561211,39.6257939766383,"423084,7237","2197311,874"
"ул. Еременко, 57/1","Гостиница малой вместимости","На строительство",61-310-888901-2016,27.07.2016,47.2325888564508,39.6278096039257,"423035,8441","2197463,701"
"ул. Еременко, 83","Здание общежития","На строительство",61-310-890901-2016,30.08.2016,47.2340740936221,39.6193486407771,"423212,129","2196825,892"
"Малиновского ул., 78г","2 фильтра-поглотителя","На строительство",RU61310000-6223-5,27.10.2011,47.2350686640427,39.6167321047812,"423326,1657","2196629,701"
"Малиновского ул., 78г","Насосная станция","На строительство",RU61310000-6223-5,27.10.2011,47.2350686640427,39.6167321047812,"423326,1657","2196629,701"
"Малиновского ул., 78г",Проходная,"На строительство",RU61310000-6223-5,27.10.2011,47.2350686640427,39.6167321047812,"423326,1657","2196629,701"
"Малиновского ул., 78г","Два фильтра-поглотителя-завершение стр-ва ВНС ""Малиновского""","На строительство",RU61310000-6223-5/1,27.10.2011,47.2350686640427,39.6167321047812,"423326,1657","2196629,701"
"Малиновского ул., 78г","Здание проходной-завершение стр-ва ВНС ""Малиновского""","На строительство",RU61310000-6223-5/1,27.10.2011,47.2350686640427,39.6167321047812,"423326,1657","2196629,701"
"Малиновского ул., 78г","Постовые вышки-завершение стр-ва ВНС ""Малиновского""","На строительство",RU61310000-6223-5/1,27.10.2011,47.2350686640427,39.6167321047812,"423326,1657","2196629,701"
"Малиновского ул.,78г","РУ-10кВ-завершение стр-ва ВНС ""Малиновского""","На строительство",RU61310000-6223-5/1,27.10.2011,47.2350686640427,39.6167321047812,"423326,1657","2196629,701"
"ул. Шекспира, 35","одноквартирный жилой дом","На строительство","RU 61310008-201",09.06.2016,47.2351906761014,39.6290421242039,"423323,4754","2197562,053"
"ул. Еременко, балка Рябинина","Крытый плавательный бассейн с гостевой автостоянкой","На строительство",RU61310000-6457-1,03.08.2007,46.9159530122305,39.2732152916453,"388363,3963","2169843,017"
"339-й Стрелковой Дивизии ул., 33","Храм Святого Георгия Победоносца в г.Ростове-на-Дону","На строительство",RU61310000-8212-1,15.01.2014,47.2259184738985,39.6154640353898,"422310,5952","2196515,848"
"Зорге ул.46/130",Магазин,"На реконструкцию",RU61310000-7599-1,17.06.2011,47.2193916975352,39.6329613772903,"421561,9126","2197828,42"
"ул. Зорге, 64","Квартира № 1 с целью перевода в нежилое помещение (офис) и устройством отдельного входа","На реконструкцию",61-310-864101-2015,03.07.2015,47.2283191612234,39.6305454542297,"422557,5735","2197662,639"
"пр-кт. Стачки, 188/3","Многоквартирный жилой дом со встроенно-пристроенными помещениями общественного назначения (офисы) и подземной автостоянкой","На строительство",61-310-875901-2016,18.02.2016,47.2136526627444,39.6378568116004,"420917,4834","2198188,212"
"пр-кт. Стачки, 188","Жилое помещение (квартира № 21 ) под нежилое (офисное) помещение","На реконструкцию",61-310-868701-2015,12.11.2015,47.2127839697545,39.6387836781667,"420819,6984","2198256,759"
"ул. Совхозная, 32а (микрорайон ""Левенцовка"")","Многоквартирный жилой дом Литер 1","На строительство",61-310-896501-2016,12.12.2016,47.2346205202101,39.5658422004661,"423345,1031","2192775,409"
"ул. Совхозная, 32а (микрорайон ""Левенцовка"")","Многоквартирный жилой дом Литер 2","На строительство",61-310-896601-2016,12.12.2016,47.2346205202101,39.5658422004661,"423345,1031","2192775,409"
"Совхозная ул., 44а","индивидуальный одноквартирный одноэтажный жилой дом","На строительство",RU61310008-230,28.04.2017,47.2347796727897,39.5535089649369,"423379,8388","2191841,853"
"СНТ «Нива», 17 (пер. 2-й Фермерский, 17)","Индивидуальный  одноквартирный двухэтажный жилой дом","На строительство",RU613100008-98,17.04.2013,47.2371386390017,39.5474186055804,"423650,5619","2191385,515"
"СТ ""Нива"" (34)","Индивидуальный  одноквартирный трёхэтажный жилой дом","На строительство",RU61310008-147,28.10.2014,47.237572902426,39.5468947852661,"423699,5703","2191346,742"
"СНТ ""Изумруд"", 149","Индивидуальный  одноквартирный трёхэтажный жилой дом","На строительство",RU61310008-106,09.07.2013,47.238265075684,39.563701753762,"423753,2258","2192620,706"
"Северо-западная часть города, х. Дугино","Водовод сырой воды, водовод питьевой воды","На строительство",RU61310000-7206/1-2,16.12.2013,47.2363040083017,39.5618980302991,"423537,6953","2192480,164"
"ул. Мазурова, 4","Одноквартирный жилой дом","На строительство","RU 61310008-212",22.02.2017,47.2303638760677,39.555206136217,"422886,5687","2191961,377"
"пер. 1-й Санинструкторский, 5","одноквартирный жилой дом","На строительство","RU 61310008-194",29.04.2016,47.232369218383,39.5515954276116,"423114,5194","2191692,041"
"ул. Совхозная, 44а","Индивидуальный  одноквартирный двухэтажный жилой дом","На строительство",RU61310008-144,07.10.2014,47.2354607128842,39.5540443220616,"423454,8091","2191883,777"
"ул. 3-я Ковровая, 9","Индивидуальный  одноквартирный трёхэтажный жилой дом","На строительство",RU61310008-121,27.01.2014,47.2397140285093,39.5690134357841,"423907,0048","2193025,803"
"пер. Фермерский, 66","Склад № 1 - I этап строительства","На реконструкцию",61-310-905201-2017,06.04.2017,47.2422804111575,39.5481319607583,"424221,1933","2191450,046"
"пер. Фермерский, 66","Склад № 2 - II этап строительства","На строительство",61-310-905301-2017,06.04.2017,47.2422804111575,39.5481319607583,"424221,1933","2191450,046"
"пер. Фермерский, 66","Склад № 3 - III этап строительства","На строительство",61-310-905401-2017,06.04.2017,47.2422804111575,39.5481319607583,"424221,1933","2191450,046"
"пер. Фермерский, 66","Склад № 4 - IV этап строительства","На строительство",61-310-905501-2017,06.04.2017,47.2422804111575,39.5481319607583,"424221,1933","2191450,046"
"пер. Фермерский, 66","Склад № 5 - V этап строительства","На строительство",61-310-905601-2017,06.04.2017,47.2422804111575,39.5481319607583,"424221,1933","2191450,046"
"пер. Фермерский, 66","Склад № 6 - VI этап строительства","На строительство",61-310-905701-2017,06.04.2017,47.2422804111575,39.5481319607583,"424221,1933","2191450,046"
"пер. Фермерский, 66","Склад № 7 - VII этап строительства","На строительство",61-310-905801-2017,06.04.2017,47.2422804111575,39.5481319607583,"424221,1933","2191450,046"
"Правовая ул., 41","индивидуальный одноквартирный трехэтажный жилой дом","На строительство",RU61310008-224,18.04.2017,47.2179290443689,39.6207977981573,"421415,3204","2196904,281"
"ул. Благодатная, 239","Индивидуальный  одноквартирный трёхэтажный жилой дом","На строительство",RU61310008-143,30.09.2014,47.2215233291402,39.6148190464733,"421822,8313","2196458,431"
"ул. Капитанская, 1/11б","одноквартирный жилой дом","На строительство","RU 1310008-194",29.04.2016,47.2124473803862,39.6131168752992,"420816,0964","2196311,793"
"просп. Стачки, № 298 (ДНТ ""Садовод-Любитель"")","Индивидуальный  одноквартирный трёхэтажный жилой дом","На строительство",RU61310008-137,17.06.2014,47.2121099391051,39.6038195370594,"420790,9898","2195606,834"
"ДНТ ""Садовод-Любитель"", (8-113)","индивидуальный одноквартирный двухэтажный жилой дом","На строительство",RU61310008-231,10.05.2017,47.219924122555,39.6077106297766,"421654,51","2195916,909"
"ДНТ ""Садовод-Любитель"", (8-35)","индивидуальный одноквартирный одноэтажный жилой дом","На строительство",RU61310008-228,28.04.2017,47.2225411111239,39.6128898909038,"421938,5453","2196314,305"
"ДНТ ""Садовод-Любитель"", ТЭЦ-05, 7-203, пр. Стачки, 348","Здание физкультурно-спортивного комплекса","На строительство",61-310-904001-2017,15.03.2017,47.2106048556984,39.5975058000693,"420632,1397","2195125,58"
"ДНТ ""Садовол-Любитель"", ул. Кочевая, 65а","индивидуальный одноквартирный одноэтажный жилой дом","На строительство",RU61310008-220,12.04.2017,47.2140403651364,39.6044883069629,"421004,7049","2195661,287"
"СНТ ""Мечта"", (146)","индивидуальный одноквартирный двухэтажный жилой дом","На строительство",RU61310008-226,25.04.2017,47.2280174136454,39.6030361232341,"422560,5156","2195578,771"
"2-я Обзорная ул., 16а","индивидуальный одноквартирный двухэтажный жилой дом","На строительство",RU61310008-221,13.04.2017,47.2268377553929,39.6049902333765,"422426,7535","2195724,439"
"ул. Обзорная, 108","одноквартирный жилой дом","На строительство","RU 61310008-180",01.09.2015,47.2298502884121,39.6034398567597,"422763,7407","2195612,949"
"пр-кт. Стачки, 226а","Административное здание, магазин","На реконструкцию",61-310-857101-2015,20.11.2015,47.2127853457612,39.6171867050748,"420848,264","2196620,749"
"Стачки просп., 226а","Магазин с помещениями общественного назначения","На строительство",RU61310000-2126-1,20.04.2012,47.2128122583692,39.6172002182585,"420851,238","2196621,825"
"Зорге ул., 9 (с.п.5)","19-этажный 2-секционный жилой дом со встроенными помещениями общественного назначения и автостоянкой","На строительство",RU61310000-7910-1,11.10.2012,47.2179294513356,39.6322442580955,"421400,2908","2197771,289"
"ул. Андрея Сладкова, 170а","Индивидуальный  одноквартирный трёхэтажный жилой дом","На строительство",RU61310008-127,02.06.2014,47.2154597533695,39.6380236902945,"421118,1646","2198204,316"
"Ровенская ул., 104","индивидуальный одноквартирный двухэтажный жилой дом","На строительство",RU61310008-233,12.05.2017,47.2184911576013,39.6363965205356,"421457,3002","2198086,878"
"Кустанайская ул., 97","индивидуальный одноквартирный двухэтажный жилой дом","На строительство",RU61310008-218,31.05.2017,47.2204221188891,39.6369345322057,"421671,2673","2198131,333"
"ул. Развиленская, 96","Индивидуальный  одноквартирный трёхэтажный жилой дом","На строительство",RU61310008-123,10.02.2014,47.2214401856088,39.6366430448941,"421784,8296","2198111,209"
"ул. Акмолинская, 90","одноквартирный жилой дом","На строительство","RU 61310008-200",26.05.2016,47.2240341958112,39.6360270955493,"422074,0184","2198069,537"
"Лесопарковая ул., 129а","индивидуальный одноквартирный одноэтажный жилой дом","На строительство",RU61310000-227,25.04.2017,47.224908204765,39.6389952642072,"422167,3072","2198296,008"
"ул. Мечетинская, 63","одноквартирный жилой дом","На строительство",RU61310008-175,10.08.2015,47.2237356797035,39.6395621488809,"422036,2147","2198336,696"
"ул. Мечетинская, 61","Индивидуальный  одноквартирный трёхэтажный жилой дом","На строительство",RU61310008-128,26.06.2014,47.2237796208276,39.6397475306713,"422040,858","2198350,82"
"Благодатная ул., 100а","индивидуальный одноквартирный двухэтажный жилой дом","На строительство",RU61310008-223,18.04.2017,47.2230714859994,39.6409141403043,"421960,6118","2198437,82"
"ул. Мичуринская, 51/114","Индивидуальный  одноквартирный трёхэтажный жилой дом литера «А»","На строительство",RU61310008-108,31.07.2013,47.2195518239026,39.6445817242667,"421564,5487","2198708,88"
"Манежная ул., 25","индивидуальный одноквартирный двухэтажный жилой дом","На строительство",RU61310008-217,07.04.2017,47.2179661924666,39.6450245999574,"421387,6942","2198739,401"
"ул. Манежная, 63","Индивидуальный  одноквартирный двухэтажный жилой дом","На строительство",RU61310008-125,15.04.2014,47.2171766874845,39.6414504396104,"421304,5719","2198467,168"
"ул. Череповецкая, 42","Индивидуальный  одноквартирный двухэтажный жилой дом литера «А»","На строительство",RU613100008-97,28.03.2013,47.2169151817828,39.6415661064736,"421275,3489","2198475,43"
"ул. Задонская, 133","индивидуальный одноквартирный жилой дом","На строительство",RU61310008-148,24.10.2014,47.2152759963582,39.5704947308213,"421188,1306","2193088,76"
"ул. 30-летия Октября, 237","Индивидуальный  одноквартирный двухэтажный жилой дом литера «А»","На строительство",RU613100008-96,21.03.2013,47.2175127023456,39.5693040993896,"421438,4243","2193003,078"
"СТ ""Стимул"" (307)","Индивидуальный  одноквартирный двухэтажный жилой дом","На строительство",RU61310008-132,10.06.2014,47.2315414387408,39.5364794506141,"423043,6101","2190545,695"
"СТ ""Путеец"" (168)","Индивидуальный  одноквартирный двухэтажный жилой дом","На строительство",RU61310008-142,27.08.2014,47.2255849100911,39.555737250766,"422354,5423","2191991,875"
"ул. Задонская, 17 А","Индивидуальный  одноквартирный двухэтажный жилой дом","На строительство",RU61310008-140,12.08.2014,47.1952097712893,39.6086030667612,"418905,7634","2195936,109"
"ул.Пескова, 44/1","одноквартирный жилой дом","На строительство",RU61310008-176,10.08.2015,47.196810670019,39.6086477564587,"419083,6793","2195942,629"
"ул.2-я Краснодарская, 92б","Здание промтоварного магазина торговой площади 49,5м2","На строительство",RU61310000-7228-1,08.12.2009,47.2046487983313,39.6197717848007,"419940,2787","2196800,77"
"пр-кт. Коммунистический, 35б","Административное здание","На строительство",RU61310000-8458-1,30.10.2014,47.2070185119658,39.6256600235001,"420195,949","2197251,467"
"ул. 2-я Краснодарская, 145а","Производственное здание в офисное здание","На реконструкцию",RU61310000-8472-1,19.11.2014,47.202867970637,39.6296368303056,"419729,2897","2197544,747"
"ул. Тружеников, 11","Торгово-офисное здание - 1-й этап реконструкции","На реконструкцию",61-310-904701-2017,03.04.2017,47.207788929422,39.6472904416119,"420253,3195","2198891,656"
"ул. Тружеников, 11","Торгово-офисное здание - 1-й этап реконструкции","На реконструкцию",61-310-904701-2017,03.04.2017,47.207788929422,39.6472904416119,"420253,3195","2198891,656"
"ул. Тружеников, 11","Торгово-офисное здание - 2-й этап реконструкции","На реконструкцию",61-310-904801-2017,03.04.2017,47.207788929422,39.6472904416119,"420253,3195","2198891,656"
"ул. Тружеников, 11","Торгово-офисное здание - 2-й этап реконструкции","На реконструкцию",61-310-904801-2017,03.04.2017,47.207788929422,39.6472904416119,"420253,3195","2198891,656"
"пр-кт. Стачки, 183","Многоэтажный жилой дом со встроенными помещениями общественного назначения и подземной автостоянкой","На строительство",RU61310000-2255-1/1,26.11.2007,47.2110465824814,39.6470396435508,"420615,8067","2198878,857"
"ул. Сказочная, 101","Одноквартирный жилой дом","На строительство","RU 61310008-193",08.04.2016,47.2026242254749,39.6346890013273,"419695,5658","2197927,062"
"Тарновского-Терлецкого ул., 51","индивидуальный одноквартирный одноэтажный жилой дом","На строительство",№29,14.05.2008,47.2673363385404,39.6753700523175,"426837,366","2201129,938"
"Самаркандская ул., 29а","индивидуальный одноквартирный двухэтажный жилой дом","На строительство",№28,30.04.2008,47.268799027192,39.6744371681813,"427001,1632","2201062,072"
"Самаркандская ул., 30","индивидуальный одноквартирный двухэтажный жилой дом","На строительство",№51,26.06.2008,47.2691428338437,39.674097940724,"427039,8165","2201037,044"
"Алданская ул., 39","индивидуальный одноквартирный двухэтажный жилой дом","На строительство",RU61310005-196,14.03.2014,47.2703330197212,39.6751438482816,"427170,8056","2201118,409"
"Витебская ул., 44/44","индивидуальный жилой дом литер «А» с возведением  пристройки","На строительство",RU61310005-136,09.06.2012,47.2701034887721,39.6759338518935,"427144,2851","2201177,761"
"Алданская ул., 18а",-,"На строительство",RU61310005-331,30.03.2017,47.2702470560317,39.672935785467,"427164,0545","2200951,165"
"Рахманинова ул., 72","индивидуальный одноквартирный двухэтажный жилой дом","На строительство",RU61310005-72,25.10.2010,47.269420259802,39.6789117889854,"427064,5537","2201401,832"
"Рахманинова ул., 89","индивидуальный одноквартирный двухэтажный жилой дом","На строительство",RU61310005-104,12.03.2012,47.2688231113778,39.6779791036987,"426999,3476","2201330,143"
"Владивостокский пер., 51","индивидуальный одноквартирный двухэтажный жилой дом","На строительство",RU61310005-133,01.06.2010,47.2680023575453,39.6783518577742,"426907,629","2201356,823"
"Тарновского-Терлецкого ул., 77","индивидуальный одноквартирный трехэтажный жилой дом","На строительство",RU61310005-282,21.12.2015,47.2679312625776,39.6782055868622,"426899,9104","2201345,622"
"Тюменская ул., 77","индивидуальный одноквартирный трехэтажный жилой дом","На строительство",RU61310005-161,17.01.2013,47.2683242777258,39.6786731269358,"426943,0113","2201381,733"
"Тульская ул., 95","индивидуальный одноквартирный одноэтажный жилой дом","На строительство",RU61310005-303,20.07.2016,47.2670767147917,39.6797275700669,"426802,9804","2201459,207"
"Дачная ул., 9","индивидуальный одноквартирный одноэтажный жилой дом","На строительство",RU61310005-216,04.08.2014,47.2619333645016,39.682449774107,"426227,7343","2201655,67"
"Витебская ул., 2","индивидуальный жилой дом литер «А»","На строительство",RU61310005-58,02.07.2010,47.2688058686507,39.6686622869705,"427009,2758","2200625,087"
"Соловьиная ул.,6","индивидуальный одноквартирный двухэтажный жилой дом","На строительство",RU61310005-30,10.06.2009,47.2609670755926,39.666277764941,"426140,8532","2200429,926"
"Соловьиная ул., 8","индивидуальный одноквартирный двухэтажный жилой дом с подвалом и мансардой","На строительство",RU61310005-34,28.08.2009,47.2608761332999,39.6664483941999,"426130,5247","2200442,669"
"Соловьиная ул., 8а","индивидуальный одноквартирный двухэтажный жилой дом с подвалом и мансардой","На строительство",RU61310005-35,28.08.2009,47.2608124044084,39.6665797252004,"426123,2719","2200452,489"
"СНТ ""Женьшень"", 31","индивидуальный одноквартирный двухэтажный жилой дом","На строительство",RU61310005-164,26.02.2013,47.2556238031253,39.6709405739325,"425540,8726","2200772,826"
"Женьшеневая ул., 13","индивидуальный одноквартирный двухэтажный жилой дом","На строительство",RU61310005-203,18.04.2014,47.2560514342516,39.6716462015476,"425587,5153","2200827,035"
"СНТ ""Братство"", 1056","индивидуальный одноквартирный одноэтажный жилой дом","На строительство",RU61310005-206,30.04.2014,47.2749452687104,39.6197854850269,"427755,337","2196938,414"
"СНТ ""Братство"", 1169","индивидуальный одноквартирный двухэтажный жилой дом","На строительство",RU61310005-135,09.06.2012,47.2757472923085,39.6228346967585,"427840,4704","2197170,683"
"СНТ ""Братство"", 122","индивидуальный одноквартирный двухэтажный жилой дом","На строительство",RU61310005-122,10.05.2012,47.2876254243674,39.6558646839635,"429117,9279","2199692,291"
"СНТ ""Братство"", уч. 1180","индивидуальный одноквартирный двухэтажный жилой дом","На строительство",RU61310005-158,06.12.2012,47.2893902759412,39.6539695692878,"429316,5768","2199552,281"
"СНТ ""Братство"", 500","индивидуальный одноквартирный двухэтажный жилой дом","На строительство",RU61310005-220,08.09.2014,47.282231612919,39.6345164816171,"428545,9995","2198067,025"
"СНТ ""Братство"", 212","индивидуальный одноквартирный двухэтажный жилой дом","На строительство",RU61310005-121,02.05.2012,47.2857838135085,39.6491265507365,"428921,891","2199179,079"
"СНТ ""Братство"", 315","индивидуальный одноквартирный одноэтажный жилой дом","На строительство",RU61310005-176,21.06.2013,47.2835946061019,39.6433496462668,"428686,0042","2198737,884"
"СНТ ""Братство"", 1184","индивидуальный одноквартирный двухэтажный жилой дом","На строительство",RU61310005-217,05.08.2014,47.2884831399919,39.6553068252016,"429214,0024","2199651,716"
"СНТ ""Братство"", 261","индивидуальный одноквартирный одноэтажный жилой дом","На строительство",RU61310005-329,20.03.2017,47.2855207438358,39.6463340859829,"428896,2639","2198967,333"
"СНТ Братство, 1063","индивидуальный одноквартирный двухэтажный жилой дом","На строительство",RU61310005-284,23.12.2015,47.2756018447706,39.6214584531303,"427826,1185","2197066,271"
"СНТ ""Братство"", 630","индивидуальный одноквартирный двухэтажный жилой дом","На строительство",RU61310005-292,09.03.2016,47.2804017262803,39.6303309730182,"428348,0512","2197746,848"
"СНТ «Братство», ул. 5-я Турнирная, 46","индивидуальный жилой дом литер «Б» с возведением пристройки","На строительство",RU61310005-154,15.11.2012,47.2758592007618,39.6204437732648,"427856,0713","2196989,998"
"2-я Форматная ул., 95","индивидуальный одноквартирный двухэтажный жилой дом","На строительство",RU61310005-280,30.11.2015,47.2920332631821,39.6494938396936,"429616,1925","2199218,753"
"СТ ""Авангард-3"", 156","индивидуальный одноквартирный трехэтажный жилой дом","На строительство",RU61310005-183,28.11.2013,47.2804612579359,39.6782202280644,"428292,9008","2201370,048"
"СНТ ""9 Мая"", 61","индивидуальный одноквартирный двухэтажный жилой дом","На строительство",RU61310005-180,28.08.2013,47.2782347871508,39.6805312652869,"428042,4505","2201540,755"
"Парадная ул., 23","индивидуальный одноквартирный трехэтажный жилой дом","На строительство",RU61310005-328,16.03.2017,47.2782825509505,39.6815760515674,"428046,4401","2201619,89"
"СТ «Мир», ул. 2-я Арсенальная, 51","индивидуальный одноквартирный двухэтажный жилой дом","На строительство",RU61310005-129,24.05.2012,47.2806537909522,39.6760813743075,"428317,0167","2201208,591"
"СТ ""Мир"", ул. Полевая, 2","индивидуальный одноквартирный одноэтажный с мансардой жилой дом","На строительство",RU61310005-91,26.07.2011,47.2820138325741,39.677301560646,"428466,6708","2201303,438"
"ул. Особенная, 79/1","Склад материалов ООО ""Аврора""","На строительство",61-310-908301-2017,01.06.2017,47.2842403583616,39.668830230794,"428724,9747","2200666,727"
"Почетная ул., 87/4","индивидуальный одноквартирный двухэтажный жилой дом","На строительство",RU61310005-167,04.04.2013,47.2820460845922,39.6702830399356,"428479,1761","2200772,524"
"СНТ ""За Дружбу"", 142",Склад,"На строительство",RU61310000-8469-1,14.11.2014,47.2891143701273,39.664410035915,"429272,487","2200341,508"
"5-я Канатная ул., 79","индивидуальный одноквартирный одноэтажный жилой дом с надстройкой второго этажа","На строительство",RU61310005-171,26.04.2013,47.2910787756555,39.6669068743369,"429487,6853","2200534,065"
"5-й Строевой пер., 6","индивидуальный одноквартирный трехэтажный жилой дом","На строительство",RU61310005-321,03.02.2017,47.2741528491837,39.6710689042075,"427600,6525","2200817,206"
"СНТ ""СКВО"", уч. 282","индивидуальный одноквартирный двухэтажный жилой дом","На строительство",RU61310005-96,12.12.2011,47.276228180347,39.6760911106672,"427824,9915","2201201,078"
"СНТ ""СКВО"", уч. 109","индивидуальный одноквартирный двухэтажный жилой дом","На строительство",RU61310005-77,25.04.2011,47.274920660935,39.6781626795817,"427677,0033","2201355,382"
"СНТ ""СКВО"", 409","индивидуальный одноквартирный двухэтажный жилой дом","На строительство",RU61310005-144,18.06.2012,47.2780437308624,39.6793789085731,"428022,6676","2201453,213"
"СНТ ""СКВО"", уч.174 (ул. Ладная, 17)","индивидуальный одноквартирный двухэтажный жилой дом","На строительство",RU61310005-92,30.08.2011,47.275540567644,39.6782895465812,"427745,7601","2201366,135"
"Вавилова ул., 74г",Автомойка,"На строительство",RU61310000-6662-1,28.04.2008,47.2833729529908,39.6817074955864,"428612,1948","2201639,284"
"Вавилова ул., 74г",Автомойка,"На строительство",RU61310000-6662-2,12.02.2009,47.2833729529908,39.6817074955864,"428612,1948","2201639,284"
"Вавилова ул., 74г",Автомойка,"На строительство",RU61310000-6662-3,31.07.2009,47.2833729529908,39.6817074955864,"428612,1948","2201639,284"
"4-я Залповая ул., 44","индивидуальный одноквартирный двухэтажный жилой дом","На строительство",RU61310005-128,21.05.2012,47.3009445406589,39.6641085845479,"430588,0835","2200340,967"
"СНТ ""Салют"", 438","индивидуальный одноквартирный двухэтажный жилой дом","На строительство",RU61310005-184,09.12.2013,47.3000484060284,39.6588479123304,"430495,2045","2199941,428"
"12-я Залповая ул., 17",-,"На строительство",RU61310005-305,08.08.2016,47.3024101183374,39.6595384105144,"430756,8791","2199998,109"
"ул. Вавилова, 59л","Офисное здание","На строительство",61-310-886201-2016,15.06.2016,47.2689234961588,39.6837950129229,"427003,1562","2201770,431"
"ул. Вавилова, 59/4","Здание склада","На строительство",61-310-881101-2016,01.04.2016,47.272096651751,39.6765671479902,"427365,0694","2201229,397"
"ул. Вавилова, 59/3","Здание общественного назначения (офисное здание)","На строительство",61-310-873901-2015,04.12.2015,47.2721631439756,39.6774931058115,"427371,2877","2201299,585"
"ул. Инженерная, 7","Административно-офисное здание (поз. 2 по ПЗУ) - 1- этап строительства","На строительство",61-310-874901-2015,21.12.2015,47.2717305210163,39.6986195967297,"427296,6339","2202897,38"
"ул. Инженерная, 7","Производственное здание (поз. 10 по ПЗУ) - 2 этап строительства","На строительство",61-310-874901-2015,21.12.2015,47.2717305210163,39.6986195967297,"427296,6339","2202897,38"
"ул. Инженерная, 7","Производственное здание (поз. 11 по ПЗУ) - 2 этап строительства","На строительство",61-310-874901-2015,21.12.2015,47.2717305210163,39.6986195967297,"427296,6339","2202897,38"
"ул. Инженерная, 7","Производственное здание (поз. 3 по ПЗУ) - 1 этап строительства","На строительство",61-310-874901-2015,21.12.2015,47.2717305210163,39.6986195967297,"427296,6339","2202897,38"
"ул. Инженерная, 7","Производственное здание (поз. 4 по ПЗУ) - 2 этап строительства","На строительство",61-310-874901-2015,21.12.2015,47.2717305210163,39.6986195967297,"427296,6339","2202897,38"
"ул. Инженерная, 7","Производственное здание (поз. 6 по ПЗУ) - 2 этап строительства","На строительство",61-310-874901-2015,21.12.2015,47.2717305210163,39.6986195967297,"427296,6339","2202897,38"
"ул. Инженерная, 7","Производственное здание (поз. 9 по ПЗУ) - 2 этап строительства","На строительство",61-310-874901-2015,21.12.2015,47.2717305210163,39.6986195967297,"427296,6339","2202897,38"
"ул. Инженерная, 7","Складское здание (поз. 1 по ПЗУ) - 1 этап строительства","На строительство",61-310-874901-2015,21.12.2015,47.2717305210163,39.6986195967297,"427296,6339","2202897,38"
"ул. Инженерная, 7","Складское здание (поз. 7 по ПЗУ) - 2 этап строительства","На строительство",61-310-874901-2015,21.12.2015,47.2717305210163,39.6986195967297,"427296,6339","2202897,38"
"ул. Инженерная, 7","Складское здание (поз. 8 по ПЗУ) - 2 этап строительства","На строительство",61-310-874901-2015,21.12.2015,47.2717305210163,39.6986195967297,"427296,6339","2202897,38"
"пер. Радиаторный, земельный участок КН 61:44:0081117:60","Производственная база. Цех по производству полиэтиленовой тары","На реконструкцию",61-310-899901-2016,20.12.2016,47.2747767484601,39.6932012450419,"427642,065","2202492,988"
"пер. Радиаторный, 9и","Здание АБК","На строительство",RU61310000-8479-1,08.12.2014,47.2754765767721,39.6920076607917,"427721,3629","2202403,965"
"пер. Радиаторный, 9и","Склад №1","На строительство",RU61310000-8479-1,08.12.2014,47.2754765767721,39.6920076607917,"427721,3629","2202403,965"
"пер. Радиаторный, 9и","Склад №2","На строительство",RU61310000-8479-1,08.12.2014,47.2754765767721,39.6920076607917,"427721,3629","2202403,965"
"ул. Вавилова, 68","Здание склада","На строительство",61-310-908101-2017,29.05.2017,47.2782024948394,39.6859499751429,"428032,0235","2201950,668"
"ул. Днепроградская, 54","Производственная база (Лабораторный корпус - I и II  этапы строительства) /","На строительство",RU61310000-5944-2,21.05.2009,47.2795512972142,39.6875270905752,"428179,9908","2202072,483"
"ул.Вавилова, 70е",Магазин,"На строительство",RU61310000-6900-1,15.12.2008,47.281687332082,39.6853208683095,"428420,2394","2201909,521"
"в районе ул. Вавилова, 84/1","Автоматическая блочная АЗС","На строительство",61-310-905101-2017,06.04.2017,47.2903976525508,39.6787438019063,"429396,908","2201428,147"
"ул. Шеболдаева, 95","Жилой дом (Литер 1)","На строительство",61-310-870401-2015,07.12.2015,47.2592353294988,39.6883872392251,"425920,3045","2202100,048"
"ул. Шеболдаева, 95","Жилой дом (Литер 2)","На строительство",61-310-870401-2015,07.12.2015,47.2592353294988,39.6883872392251,"425920,3045","2202100,048"
"ул. Шеболдаева, 95","Подземная автостоянка (Литер 3)","На строительство",61-310-870401-2015,07.12.2015,47.2592353294988,39.6883872392251,"425920,3045","2202100,048"
"Освобождения ул.,2","Канализационная насосная станция ""Северная-1""","На реконструкцию",RU61310000-8035-1,14.06.2013,47.2522119552178,39.6759969086466,"425155,1373","2201149,186"
"Природная ул., 1в","индивидуальный одноквартирный одноэтажный жилой дом","На строительство",№11,27.02.2009,47.2498044893351,39.6631258758379,"424903,9027","2200170,372"
"Элитная ул., 8","индивидуальный одноквартирный двухэтажный жилой дом","На строительство",RU61310005-111,10.04.2012,47.2531106532505,39.6715429794995,"425260,7097","2200813,723"
"Элитная ул., 6","индивидуальный одноквартирный двухэтажный жилой дом","На строительство",RU61310005-116,10.04.2012,47.2531178674693,39.6718469265652,"425261,1248","2200836,744"
"Элитная ул., 4","индивидуальный одноквартирный двухэтажный жилой дом","На строительство",RU61310005-115,10.04.2012,47.2530717340531,39.6720445100832,"425255,7445","2200851,613"
"Элитная ул., 2","индивидуальный одноквартирный двухэтажный жилой дом","На строительство",RU61310005-110,10.04.2012,47.253061268031,39.6722953888729,"425254,2617","2200870,584"
"Элитная ул., 21","индивидуальный одноквартирный одноэтажный жилой дом","На строительство",RU61310005-125,16.05.2012,47.2532077423966,39.6687830763723,"425275,0209","2200604,995"
"Элитная ул., 11","индивидуальный одноквартирный двухэтажный жилой дом","На строительство",RU61310005-124,16.05.2012,47.2530002207103,39.6704318519413,"425249,8478","2200729,41"
"Элитная ул., 5","индивидуальный одноквартирный двухэтажный жилой дом","На строительство",RU61310005-137,18.06.2012,47.2528688102745,39.6713681797463,"425234,0457","2200800,039"
"Элитная ул., 3","индивидуальный одноквартирный двухэтажный жилой дом","На строительство",RU61310005-143,18.06.2012,47.2528222907459,39.6716318131381,"425228,5383","2200819,908"
"Элитная ул., 1","индивидуальный одноквартирный двухэтажный жилой дом","На строительство",RU61310005-0000000000000123,16.05.2012,47.2527939916708,39.6718560432857,"425225,1068","2200836,828"
"Элитная ул., 22","индивидуальный одноквартирный двухэтажный жилой дом","На строительство",RU61310005-139,18.06.2012,47.2534587379244,39.6689315582615,"425302,7356","2200616,705"
"Доходная ул., 15","индивидуальный одноквартирный двухэтажный жилой дом","На строительство","ул. Доходная, 15",10.04.2012,47.2534383188562,39.6708865596372,"425297,9734","2200764,649"
"Доходная ул., 9","индивидуальный одноквартирный двухэтажный жилой дом","На строительство",RU61310005-113,10.04.2012,47.2533100773816,39.6712812759627,"425283,2136","2200794,286"
"Доходная ул., 7","индивидуальный одноквартирный двухэтажный жилой дом","На строительство",RU61310005-112,10.04.2012,47.2532271161277,39.6716237180545,"425273,5545","2200820,052"
"Элитная ул., 14","индивидуальный одноквартирный двухэтажный жилой дом","На строительство",RU61310005-109,10.04.2012,47.253250750422,39.6706596021145,"425277,4098","2200747,118"
"Элитная ул., 12","индивидуальный одноквартирный двухэтажный жилой дом","На строительство",RU61310005-107,10.04.2012,47.2532040005765,39.6709628685479,"425271,8262","2200769,986"
"Элитная ул., 10","индивидуальный одноквартирный двухэтажный жилой дом","На строительство",RU61310005-108,10.04.2012,47.2531663990273,39.6712398277251,"425267,2932","2200790,88"
"ул.Природная, 2е",Склад,"На строительство",RU61310000-6923-1,30.12.2008,47.2479726674723,39.6594571063142,"424704,9603","2199889,193"
"Армейская ул., 14а","индивидуальный одноквартирный двухэтажный жилой дом","На строительство",RU61310005-227,04.12.2014,47.2480523308829,39.6812147442709,"424686,0899","2201536,434"
"Армейская ул., 44","индивидуальный одноквартирный одноэтажный жилой дом","На строительство",№78,09.10.2008,47.2472480981892,39.6848503069806,"424592,0924","2201810,165"
"Павлодарская ул., 140/157","индивидуальный одноквартирный трехэтажный жилой дом","На строительство",№19,18.04.2008,47.2495509320392,39.6938101057668,"424836,8538","2202492,68"
"Освобождения ул., 69в","индивидуальный одноквартирный двухэтажный жилой дом","На строительство",№17,16.04.2008,47.2494664550139,39.6869264746787,"424836,1005","2201971,436"
"Павлодарская ул., 78","индивидуальный одноквартирный одноэтажный жилой дом","На строительство",№12,07.04.2008,47.2488954056985,39.6891515987283,"424769,8176","2202138,824"
"ул. Вавилова в районе военного городка №140 Ростовской-на-Дону КЭЧ района","Распределительная камера","На строительство",RU61310000-8483-1,11.12.2014,47.3171724850126,39.6972737075327,"432350,2949","2202878,9"
"ул. Вавилова в районе военного городка №140 Ростовской-на-Дону КЭЧ района",Резервуар-отстойник,"На строительство",RU61310000-8483-1,11.12.2014,47.3171724850126,39.6972737075327,"432350,2949","2202878,9"
"ул. Вавилова в районе военного городка №140 Ростовской на Дону КЭЧ района (с.п. 1-5)","Детское дошкольное учреждение №2 на 160 мест","На строительство",RU61310000-8526-1,17.02.2015,47.3124819664875,39.6769499219711,"431854,3918","2201333,614"
"ул. Вавилова, в районе военного городка №140 Ростовской-на-Дону КЭЧ района","Общеобразовательная школа вместимостью 1340 учащихся в I мкр. на территории военного городка №140","На строительство",61-310-908801-2017,06.06.2017,47.3133670104985,39.677873822813,"431951,6155","2201405,118"
"ул. Петренко, 10 (ул.Вавилова, в районе военного городка №140 Ростовской-на-Дону КЭЧ района)","Жилой дом литер ""8"" со встроенно-пристроенными помещениями общественного назначения","На реконструкцию",61-310-904501-2017,30.03.2017,47.3189831195983,39.6788450925217,"432574,7548","2201489,008"
"Вавилова ул., 161","индивидуальный одноквартирный двухэтажный жилой дом","На строительство",№80,16.10.2008,47.3050717542205,39.6766702172987,"431030,9193","2201298,65"
"Первоцветная ул., 4",-,"На строительство",RU61310005-359,17.05.2017,47.3060596450194,39.6769340809331,"431140,413","2201320,445"
"ул. Сосновая, 12","индивидуальный одноквартирный одноэтажный жилой дом","На строительство",RU61310005-215,21.07.2014,47.3063751482996,39.6768190876191,"431175,6347","2201312,338"
"ул. Вавилова в районе военного городка №140 Ростовской-на-Дону КЭЧ районе","Многоэтажный жилой дом Литер ""8"" в г. Ростов-на-Дону, ЖК ""Суворовский"", квартал 1-4""","На строительство",61-310-877601-2016,11.02.2016,47.3222050384759,39.6891118590528,"432920,0061","2202271,133"
"Вавилова ул., в районе военного городка №140 Ростовской-на-Донеу КЭЧ района","2 камеры токоограничивающих реакторов 10 кВ (РТ1, РТ2)","На строительство",RU61310000-8223-1,28.01.2014,47.3535546449551,39.6812073695173,"436415,2599","2201731,854"
"Вавилова ул., в районе военного городка №140 Ростовской-на-Донеу КЭЧ района","Здание ЗРУ 10 кВ","На строительство",RU61310000-8223-1,28.01.2014,47.3535546449551,39.6812073695173,"436415,2599","2201731,854"
"Вавилова ул., в районе военного городка №140 Ростовской-на-Донеу КЭЧ района","Здание насосной станции пожаротушения","На строительство",RU61310000-8223-1,28.01.2014,47.3535546449551,39.6812073695173,"436415,2599","2201731,854"
"Вавилова ул., в районе военного городка №140 Ростовской-на-Донеу КЭЧ района","Здание ОПУ (общеподстанционного пункта управления)","На строительство",RU61310000-8223-1,28.01.2014,47.3535546449551,39.6812073695173,"436415,2599","2201731,854"
"Вавилова ул., в районе военного городка №140 Ростовской-на-Донеу КЭЧ района","Здание проходной","На строительство",RU61310000-8223-1,28.01.2014,47.3535546449551,39.6812073695173,"436415,2599","2201731,854"
"ул. Вавилова в районе военного городка №140 Ростовской-на-Дону КЭЧ района","Многоэтажный жилой дом со встроенно-пристроенными объектами обслуживания Литер ""29"", в г. Ростов-на-Дону, ЖК ""Суворовский"", квартал 1-1","На строительство",61-310-877701-2016,15.02.2016,47.3274925158216,39.6848677243929,"433513,1797","2201960,091"
"ул. Вавилова в районе военного городка №140 Ростовской-на-Дону КЭЧ района","Многоэтажный жилой дом Литер ""30"" в г. Ростов-на-Дону, ЖК ""Суворовский"", квартал 1-1","На строительство",61-310-882801-2016,21.04.2016,47.3274591281227,39.6859388954788,"433508,1188","2202040,998"
"ул. Вавилова в районе военного городка №140 Ростовской-на-Дону КЭЧ района","Многоэтажный жилой дом Литер ""32"" в г. Ростов-на-Дону, ЖК ""Суворовский"", квартал 1-1","На строительство",61-310-882701-2016,21.04.2016,47.3274445114362,39.6868780119758,"433505,3119","2202111,957"
"ул. Вавилова в районе военного городка №140 Ростовской-на-Дону КЭЧ района","Многоэтажный жилой дом Литер ""33"" в г. Ростов-на-Дону, ЖК ""Суворовский"", квартал 1-1","На строительство",61-310-883101-2016,26.04.2016,47.3263202295718,39.6868634434951,"433380,3382","2202108,776"
"ул. Вавилова, в районе военного городка №140 Ростовской-на-Дону Кэч района, ЖК ""Суворовский"", квартал 1-1","Многоэтажный жилой дом со встроенно-пристроенными объектами обслуживания Литер ""26""","На строительство",61-310-873801-2015,01.12.2015,47.3249921116188,39.6848354200944,"433235,2382","2201953,016"
"ул. Вавилова, в районе военного городка №140 Ростовской-на-Дону КЭЧ района","Многоэтажный жилой дом Литер ""31"" в г. Ростов-на-Дону, ЖК ""Суворовский"", квартал 1-1","На строительство",61-310-871901-2015,09.11.2015,47.325048667062,39.6859077044377,"433240,1752","2202034,177"
"ул. Вавилова, в районе военного городка №140 Ростовской-на-Дону КЭЧ района","Многоэтажный жилой дом Литер ""25"" в г. Ростов-на-Дону, ЖК ""Суворовский"", квартал 1-1","На строительство",61-310-871701-2015,09.11.2015,47.3250674915146,39.6872705415529,"433240,5531","2202137,231"
"ул. Вавилова, в районе военного городка №140 Ростовской-на-Дону КЭЧ района","Многоэтажный жилой дом Литер ""17"" со встроенными офисными помещениями","На строительство",61-310-880301-2016,23.03.2016,47.3231489196095,39.6847057808457,"433030,4849","2201939,8"
"ул. Вавилова, в районе военного городка №140 Ростовской-на-Дону КЭЧ района","Многоэтажный жилой дом Литер ""14"" со встроенными офисными помещениями - I этап строительства","На строительство",61-310-890601-2016,25.08.2016,47.3238648256341,39.6853235503704,"433109,2973","2201987,826"
"ул. Вавилова, в районе военного городка №140 Ростовской-на-Дону КЭЧ района","Пристроенное отделение связи Литер ""15"" - II этап строительства","На строительство",61-310-890701-2016,25.08.2016,47.3238648256341,39.6853235503704,"433109,2973","2201987,826"
"ул. Вавилова, в районе военного городка №140 Ростовской-на-Дону КЭЧ района","Многоэтажный жилой дом Литер ""18"" со встроенными офисными помещениями","На строительство",61-310-872601-2015,17.11.2015,47.3221590764516,39.6847723669001,"432920,3553","2201942,999"
"ул. Вавилова в районе военного городка №140 Ростовской-на-Дону КЭЧ района","Многоэтажный жилой дом Литер ""23"" в г. Ростов-на-Дону, ЖК ""Суворовский"", квартал 1-3""","На строительство",61-310-877101-2016,09.02.2016,47.3223040335458,39.687605111121,"432932,9053","2202157,412"
